,direction_id,route_id,stop_id,stop_sequence,stop_name,stop_lat,stop_lon,precinct
0,0,M57,400751,1,W 72 ST/BROADWAY,40.779127,-73.982766,20.0
1,0,M57,403036,2,WEST END AV/W 72 ST,40.779534,-73.98481,20.0
2,0,M57,403037,3,WEST END AV/W 69 ST,40.777468,-73.986337,20.0
3,0,M57,403038,4,WEST END AV/W 66 ST,40.77618,-73.987276,20.0
4,0,M57,404826,5,WEST END AV/W 64 ST,40.77449,-73.98841,20.0
5,0,M57,404036,6,WEST END AV/W 61 ST,40.772991,-73.989602,20.0
72,0,M72,405086,3,WEST END AV/WEST 70 ST,40.778725,-73.985135,20.0
73,0,M72,400853,4,W 72 ST/WEST END AV,40.779553,-73.984116,20.0
76,0,M72,405308,1,WEST 66 ST/FREEDOM PL,40.7765,-73.988634,20.0
77,0,M72,404865,2,W 70 ST/FREEDOM PL,40.778911,-73.986687,20.0
78,0,M72,405237,5,W 72 ST/BROADWAY,40.778765,-73.982161,20.0
79,0,M72,403606,6,W 72 ST/COLUMBUS AV,40.777403,-73.979019,20.0
80,0,M72,402269,7,W 72 ST/CENTRAL PK W,40.776206,-73.976177,20.0
81,0,M72,401344,8,CENTRAL PK W/W 70 ST,40.774837,-73.97716,20.0
82,0,M72,401345,9,CENTRAL PK W/W 68 ST,40.773569,-73.978045,20.0
91,0,M5,400751,19,W 72 ST/BROADWAY,40.779127,-73.982766,20.0
111,0,M5,401016,15,BROADWAY/W 61 ST,40.769517,-73.981883,20.0
112,0,M5,400747,16,BROADWAY/W 63 ST,40.77186,-73.981984,20.0
113,0,M5,403271,17,BROADWAY/W 66 ST,40.774269,-73.982027,20.0
114,0,M5,400750,18,BROADWAY/W 69 ST,40.776682,-73.981922,20.0
126,0,M5,400752,20,W 72 ST/WEST END AV,40.780124,-73.984968,20.0
127,0,M5,404289,21,RIVERSIDE DR/W 74 ST,40.78204,-73.98487,20.0
128,0,M5,400755,22,RIVERSIDE DR/W 77 ST,40.783989,-73.983566,20.0
129,0,M5,400756,23,RIVERSIDE DR/W 79 ST,40.785215,-73.982281,20.0
130,0,M5,404290,24,RIVERSIDE DR/W 82 ST,40.787205,-73.98111,20.0
131,0,M5,400759,25,RIVERSIDE DR/W 85 ST,40.789293,-73.98076,20.0
338,0,M20,403510,39,W 66 ST/CENTRAL PK W,40.772619,-73.979118,20.0
339,0,M20,403779,40,W 66 ST/COLUMBUS AV,40.773578,-73.981381,20.0
340,0,M20,400858,41,BROADWAY/W 64 ST,40.771797,-73.982364,20.0
754,0,M7,401024,28,AMSTERDAM AV/W 79 ST,40.78328,-73.978085,20.0
768,0,M7,401016,21,BROADWAY/W 61 ST,40.769517,-73.981883,20.0
769,0,M7,400747,22,BROADWAY/W 63 ST,40.77186,-73.981984,20.0
770,0,M7,403271,23,BROADWAY/W 66 ST,40.774269,-73.982027,20.0
771,0,M7,400750,24,BROADWAY/W 69 ST,40.776682,-73.981922,20.0
772,0,M7,401021,25,AMSTERDAM AV/W 72 ST,40.778924,-73.981271,20.0
773,0,M7,401022,26,AMSTERDAM AV/W 75 ST,40.780222,-73.980314,20.0
774,0,M7,401023,27,AMSTERDAM AV/W 77 ST,40.782056,-73.978988,20.0
775,0,M7,401025,29,AMSTERDAM AV/W 81 ST,40.784688,-73.97707,20.0
776,0,M7,401026,30,AMSTERDAM AV/W 83 ST,40.785955,-73.976152,20.0
819,0,M11,401024,30,AMSTERDAM AV/W 79 ST,40.78328,-73.978085,20.0
841,0,M11,401414,22,AMSTERDAM AV/W 59 ST,40.770631,-73.987328,20.0
842,0,M11,401416,23,AMSTERDAM AV/W 62 ST,40.772642,-73.985836,20.0
843,0,M11,401417,24,AMSTERDAM AV/W 65 ST,40.774341,-73.984619,20.0
844,0,M11,403472,25,AMSTERDAM AV/W 67 ST,40.775639,-73.98367,20.0
845,0,M11,403555,26,AMSTERDAM AV/W 69 ST,40.776913,-73.982741,20.0
846,0,M11,401021,27,AMSTERDAM AV/W 72 ST,40.778924,-73.981271,20.0
847,0,M11,401022,28,AMSTERDAM AV/W 75 ST,40.780222,-73.980314,20.0
848,0,M11,401023,29,AMSTERDAM AV/W 77 ST,40.782056,-73.978988,20.0
849,0,M11,401025,31,AMSTERDAM AV/W 81 ST,40.784688,-73.97707,20.0
850,0,M11,401026,32,AMSTERDAM AV/W 83 ST,40.785955,-73.976152,20.0
935,0,M104,401016,8,BROADWAY/W 61 ST,40.769517,-73.981883,20.0
936,0,M104,400747,9,BROADWAY/W 63 ST,40.77186,-73.981984,20.0
937,0,M104,403271,10,BROADWAY/W 66 ST,40.774269,-73.982027,20.0
938,0,M104,400750,11,BROADWAY/W 69 ST,40.776682,-73.981922,20.0
939,0,M104,403103,12,BROADWAY/W 73 ST,40.779589,-73.981517,20.0
940,0,M104,403104,13,BROADWAY/W 75 ST,40.781301,-73.981021,20.0
941,0,M104,403105,14,BROADWAY/W 77 ST,40.782726,-73.980497,20.0
942,0,M104,403106,15,BROADWAY/W 79 ST,40.784084,-73.979583,20.0
943,0,M104,403107,16,BROADWAY/W 82 ST,40.785994,-73.978167,20.0
944,0,M104,403108,17,BROADWAY/W 84 ST,40.787215,-73.977214,20.0
958,0,M66,403487,1,W 66 ST/WEST END AV,40.776008,-73.98702,20.0
959,0,M66,403488,2,W 65 ST/WEST END AV,40.775118,-73.98728,20.0
960,0,M66,403489,3,W 65 ST/AMSTERDAM AV,40.773871,-73.984293,20.0
961,0,M66,403491,4,W 65 ST/BROADWAY,40.773177,-73.982788,20.0
962,0,M66,403573,5,W 65 ST/COLUMBUS AV,40.772835,-73.981874,20.0
963,0,M66,403492,6,W 65 ST/CENTRAL PK W,40.77181,-73.979385,20.0
972,0,M79+,403522,1,W 79 ST/RIVERSIDE DR,40.784776,-73.982324,20.0
973,0,M79+,403523,2,W 79 ST/BROADWAY,40.783867,-73.980284,20.0
974,0,M79+,401024,3,AMSTERDAM AV/W 79 ST,40.78328,-73.978085,20.0
975,0,M79+,401867,4,W 81 ST/COLUMBUS AV,40.78298,-73.974189,20.0
976,0,M79+,401868,5,W 81 ST/CENTRAL PK W,40.782008,-73.971925,20.0
986,0,M86+,403560,1,W 86 ST/WEST END AV,40.788815,-73.977726,20.0
987,0,M86+,401930,2,W 86 ST/BROADWAY,40.788358,-73.97679,20.0
988,0,M86+,401897,3,W 86 ST/AMSTERDAM AV,40.78775,-73.975401,20.0
989,0,M86+,401898,4,W 86 ST/COLUMBUS AV,40.786476,-73.972389,20.0
990,0,M86+,401899,5,W 86 ST/CENTRAL PK W,40.785289,-73.969373,20.0
1352,1,M57,405353,17,WEST END AV/W 61 ST,40.77291,-73.989366,20.0
1353,1,M57,405468,18,WEST END AV/W 64 ST,40.77484,-73.98805,20.0
1354,1,M57,403076,19,WEST END AV/W 66 ST,40.776334,-73.986857,20.0
1355,1,M57,403608,20,WEST END AV/W 69 ST,40.777706,-73.985853,20.0
1356,1,M57,405086,21,WEST END AV/WEST 70 ST,40.778725,-73.985135,20.0
1357,1,M57,400853,22,W 72 ST/WEST END AV,40.779553,-73.984116,20.0
1358,1,M57,400854,23,W 72 ST/BROADWAY,40.778765,-73.982253,20.0
1418,1,M72,400751,15,W 72 ST/BROADWAY,40.779127,-73.982766,20.0
1419,1,M72,403036,16,WEST END AV/W 72 ST,40.779534,-73.98481,20.0
1431,1,M72,403610,12,W 72 ST/CENTRAL PK W,40.77647,-73.976318,20.0
1432,1,M72,403611,13,W 72 ST/COLUMBUS AV,40.777656,-73.979141,20.0
1433,1,M72,403612,14,W 72 ST/AMSTERDAM AV,40.778609,-73.981401,20.0
1434,1,M72,405071,17,W 70 ST/WEST END AV,40.778705,-73.985788,20.0
1435,1,M72,405112,18,RIVERSIDE BL/W 69 ST,40.77906,-73.988377,20.0
1436,1,M72,803056,19,W 66 ST/FREEDOM PL,40.776491,-73.988726,20.0
1437,1,M5,400853,41,W 72 ST/WEST END AV,40.779553,-73.984116,20.0
1438,1,M5,400860,47,BROADWAY/W 61 ST,40.76947,-73.982326,20.0
1442,1,M5,400858,46,BROADWAY/W 64 ST,40.771797,-73.982364,20.0
1460,1,M5,403168,42,BROADWAY/W 72 ST,40.778655,-73.982115,20.0
1461,1,M5,403169,43,BROADWAY/W 70 ST,40.776767,-73.982304,20.0
1462,1,M5,400856,44,BROADWAY/W 68 ST,40.775414,-73.982417,20.0
1463,1,M5,403171,45,BROADWAY/W 65 ST,40.773284,-73.982406,20.0
1480,1,M5,400846,35,RIVERSIDE DR/W 86 ST,40.789741,-73.9806,20.0
1481,1,M5,400847,36,RIVERSIDE DR/W 84 ST,40.788278,-73.981178,20.0
1482,1,M5,400848,37,RIVERSIDE DR/W 82 ST,40.786689,-73.981341,20.0
1483,1,M5,400849,38,RIVERSIDE DR/W 80 ST,40.785449,-73.982266,20.0
1484,1,M5,400851,39,RIVERSIDE DR/W 76 ST,40.783055,-73.984578,20.0
1485,1,M5,400852,40,RIVERSIDE DR/W 73 ST,40.781412,-73.985318,20.0
1662,1,M20,401348,1,BROADWAY/W 63 ST,40.770883,-73.982338,20.0
1663,1,M20,400860,2,BROADWAY/W 61 ST,40.76947,-73.982326,20.0
2122,1,M7,400860,38,BROADWAY/W 61 ST,40.76947,-73.982326,20.0
2137,1,M7,400858,37,BROADWAY/W 64 ST,40.771797,-73.982364,20.0
2138,1,M7,404838,31,COLUMBUS AV/W 80 ST,40.782804,-73.974976,20.0
2150,1,M7,401093,29,COLUMBUS AV/W 86 ST,40.786185,-73.97253,20.0
2151,1,M7,401094,30,COLUMBUS AV/W 84 ST,40.784895,-73.973466,20.0
2152,1,M7,401096,32,COLUMBUS AV/W 78 ST,40.780996,-73.976309,20.0
2153,1,M7,403372,33,COLUMBUS AV/W 75 ST,40.778875,-73.977858,20.0
2154,1,M7,401099,34,COLUMBUS AV/W 72 ST,40.777085,-73.97916,20.0
2155,1,M7,401100,35,COLUMBUS AV/W 69 ST,40.775251,-73.980548,20.0
2156,1,M7,405283,36,COLUMBUS AV/W 66 ST,40.773394,-73.981807,20.0
2178,1,M11,404838,29,COLUMBUS AV/W 80 ST,40.782804,-73.974976,20.0
2203,1,M11,401093,27,COLUMBUS AV/W 86 ST,40.786185,-73.97253,20.0
2204,1,M11,401094,28,COLUMBUS AV/W 84 ST,40.784895,-73.973466,20.0
2205,1,M11,401096,30,COLUMBUS AV/W 78 ST,40.780996,-73.976309,20.0
2206,1,M11,403372,31,COLUMBUS AV/W 75 ST,40.778875,-73.977858,20.0
2207,1,M11,401099,32,COLUMBUS AV/W 72 ST,40.777085,-73.97916,20.0
2208,1,M11,401100,33,COLUMBUS AV/W 69 ST,40.775251,-73.980548,20.0
2209,1,M11,405283,34,COLUMBUS AV/W 66 ST,40.773394,-73.981807,20.0
2210,1,M11,405290,35,COLUMBUS AV/W 63 ST,40.771841,-73.983006,20.0
2211,1,M11,404030,36,COLUMBUS AV/W 61 ST,40.770015,-73.984342,20.0
2233,1,M10,401348,44,BROADWAY/W 63 ST,40.770883,-73.982338,20.0
2234,1,M10,400860,45,BROADWAY/W 61 ST,40.76947,-73.982326,20.0
2237,1,M10,401344,40,CENTRAL PK W/W 70 ST,40.774837,-73.97716,20.0
2238,1,M10,401345,41,CENTRAL PK W/W 68 ST,40.773569,-73.978045,20.0
2271,1,M10,401337,33,CENTRAL PK W/W 86 ST,40.78504,-73.96969,20.0
2272,1,M10,401338,34,CENTRAL PK W/W 84 ST,40.78375,-73.970599,20.0
2273,1,M10,401339,35,CENTRAL PK W/W 81 ST,40.781964,-73.971889,20.0
2274,1,M10,404136,36,CENTRAL PK W/W 79 ST,40.780619,-73.972854,20.0
2275,1,M10,401341,37,CENTRAL PK W/W 77 ST,40.779398,-73.973786,20.0
2276,1,M10,401342,38,CENTRAL PK W/W 74 ST,40.777466,-73.97518,20.0
2277,1,M10,401343,39,CENTRAL PK W/W 72 ST,40.776132,-73.976188,20.0
2278,1,M10,404987,42,CENTRAL PK W/W 66 ST,40.772331,-73.97898,20.0
2279,1,M10,404988,43,CENTRAL PK W/W 64 ST,40.771082,-73.979842,20.0
2282,1,M104,400860,33,BROADWAY/W 61 ST,40.76947,-73.982326,20.0
2310,1,M104,403162,22,BROADWAY/W 86 ST,40.788066,-73.976942,20.0
2311,1,M104,403163,23,BROADWAY/W 84 ST,40.78682,-73.977979,20.0
2312,1,M104,403164,24,BROADWAY/W 82 ST,40.785596,-73.9789,20.0
2313,1,M104,403165,25,BROADWAY/W 79 ST,40.783599,-73.980392,20.0
2314,1,M104,403166,26,BROADWAY/W 76 ST,40.781642,-73.981411,20.0
2315,1,M104,403167,27,BROADWAY/W 74 ST,40.780165,-73.981863,20.0
2316,1,M104,403168,28,BROADWAY/W 72 ST,40.778655,-73.982115,20.0
2317,1,M104,403169,29,BROADWAY/W 70 ST,40.776767,-73.982304,20.0
2318,1,M104,400856,30,BROADWAY/W 68 ST,40.775414,-73.982417,20.0
2319,1,M104,403171,31,BROADWAY/W 65 ST,40.773284,-73.982406,20.0
2320,1,M104,404138,32,BROADWAY/W 63 ST,40.770614,-73.98227,20.0
2326,1,M66,403510,8,W 66 ST/CENTRAL PK W,40.772619,-73.979118,20.0
2327,1,M66,403779,9,W 66 ST/COLUMBUS AV,40.773578,-73.981381,20.0
2335,1,M66,403512,10,W 66 ST/BROADWAY,40.77413,-73.982724,20.0
2336,1,M66,403513,11,W 66 ST/AMSTERDAM AV,40.775049,-73.984749,20.0
2337,1,M66,803057,12,W 66 ST/WEST END AV,40.775906,-73.986807,20.0
2347,1,M79+,401890,10,W 81 ST/CENTRAL PK W,40.782268,-73.972066,20.0
2348,1,M79+,404838,11,COLUMBUS AV/W 80 ST,40.782804,-73.974976,20.0
2349,1,M79+,403733,12,W 79 ST/AMSTERDAM AV,40.783057,-73.977883,20.0
2350,1,M79+,401893,13,W 79 ST/BROADWAY,40.78404,-73.980165,20.0
2351,1,M79+,403477,14,W 79 ST/RIVERSIDE DR,40.784988,-73.982458,20.0
6,0,M57,403626,7,WEST END AV/W 59 ST,40.77141,-73.990797,18.0
7,0,M57,402205,8,W 57 ST/11 AV,40.77023,-73.991334,18.0
8,0,M57,403992,9,W 57 ST/10 AV,40.768866,-73.988149,18.0
9,0,M57,403984,10,W 57 ST/9 AV,40.767697,-73.98534,18.0
10,0,M57,403562,11,W 57 ST/8 AV,40.766592,-73.982719,18.0
11,0,M57,403736,12,W 57 ST/7 AV,40.765563,-73.980322,18.0
12,0,M57,403621,13,W 57 ST/AV OF THE AMERICAS,40.764061,-73.976728,18.0
13,0,M57,803095,14,W 57 ST/5 AV,40.763031,-73.974302,18.0
14,0,M57,403620,15,E 57 ST/MADISON AV,40.762047,-73.971943,18.0
21,0,M12,402205,17,W 57 ST/11 AV,40.77023,-73.991334,18.0
22,0,M12,403992,18,W 57 ST/10 AV,40.768866,-73.988149,18.0
23,0,M12,403984,19,W 57 ST/9 AV,40.767697,-73.98534,18.0
28,0,M12,402160,12,12 AV/W 43 ST,40.762552,-74.000157,18.0
29,0,M12,402161,13,12 AV/W 46 ST,40.764287,-73.998337,18.0
30,0,M12,402162,14,12 AV/W 48 ST,40.765583,-73.997431,18.0
38,0,M12,405459,15,12 AV/W 52 ST,40.768082,-73.995597,18.0
39,0,M12,405460,16,12 AV/W 55 ST,40.769942,-73.994246,18.0
40,0,M12,403846,20,8 AV/W  57 ST,40.76674,-73.982683,18.0
41,0,M12,405299,21,W 58 ST/BROADWAY,40.767155,-73.981981,18.0
42,0,M31,403992,3,W 57 ST/10 AV,40.768866,-73.988149,18.0
43,0,M31,403984,4,W 57 ST/9 AV,40.767697,-73.98534,18.0
44,0,M31,403736,6,W 57 ST/7 AV,40.765563,-73.980322,18.0
45,0,M31,403621,7,W 57 ST/AV OF THE AMERICAS,40.764061,-73.976728,18.0
46,0,M31,803095,8,W 57 ST/5 AV,40.763031,-73.974302,18.0
47,0,M31,403620,9,E 57 ST/MADISON AV,40.762047,-73.971943,18.0
56,0,M31,401412,2,10 AV/W 55 ST,40.768029,-73.989275,18.0
57,0,M31,404058,1,W 54 ST/11 AV,40.767925,-73.991859,18.0
58,0,M31,803001,5,W 57 ST/8 AV,40.766495,-73.982489,18.0
117,0,M5,404043,6,AV OF THE AMERICAS/W 45 ST,40.75703,-73.982378,18.0
118,0,M5,400938,7,AV OF THE AMERICAS/W 47 ST,40.75829,-73.981468,18.0
119,0,M5,403132,8,AV OF THE AMERICAS/W 50 ST,40.759771,-73.980381,18.0
120,0,M5,400940,9,AV OF THE AMERICAS/W 51 ST,40.760748,-73.97967,18.0
121,0,M5,400941,10,AV OF THE AMERICAS/W 54 ST,40.762617,-73.978301,18.0
122,0,M5,404992,11,AV OF THE AMERICAS/W 57 ST,40.764401,-73.977001,18.0
331,0,M20,404872,32,8 AV/W 46 ST,40.759796,-73.987859,18.0
332,0,M20,404846,33,8 AV/W 49 ST,40.761902,-73.986239,18.0
333,0,M20,401239,34,8 AV/W 52 ST,40.763788,-73.984867,18.0
334,0,M20,405393,35,8 AV/W  56 ST,40.766284,-73.983072,18.0
463,0,M2,400360,16,MADISON AV/E 49 ST,40.757755,-73.975576,18.0
464,0,M2,400363,19,MADISON AV/E 57 ST,40.762858,-73.971838,18.0
497,0,M2,400358,15,MADISON AV/E 45 ST,40.755233,-73.977403,18.0
498,0,M2,400361,17,MADISON AV/E 52 ST,40.759636,-73.974182,18.0
499,0,M2,400362,18,MADISON AV/E 55  ST,40.76114,-73.973144,18.0
521,0,M1,400360,21,MADISON AV/E 49 ST,40.757755,-73.975576,18.0
522,0,M1,400363,24,MADISON AV/E 57 ST,40.762858,-73.971838,18.0
537,0,M1,400358,20,MADISON AV/E 45 ST,40.755233,-73.977403,18.0
538,0,M1,400361,22,MADISON AV/E 52 ST,40.759636,-73.974182,18.0
539,0,M1,400362,23,MADISON AV/E 55  ST,40.76114,-73.973144,18.0
587,0,M3,400360,16,MADISON AV/E 49 ST,40.757755,-73.975576,18.0
588,0,M3,400363,19,MADISON AV/E 57 ST,40.762858,-73.971838,18.0
607,0,M3,400358,15,MADISON AV/E 45 ST,40.755233,-73.977403,18.0
608,0,M3,400361,17,MADISON AV/E 52 ST,40.759636,-73.974182,18.0
609,0,M3,400362,18,MADISON AV/E 55  ST,40.76114,-73.973144,18.0
786,0,M7,404043,12,AV OF THE AMERICAS/W 45 ST,40.75703,-73.982378,18.0
787,0,M7,400938,13,AV OF THE AMERICAS/W 47 ST,40.75829,-73.981468,18.0
788,0,M7,403132,14,AV OF THE AMERICAS/W 50 ST,40.759771,-73.980381,18.0
789,0,M7,400940,15,AV OF THE AMERICAS/W 51 ST,40.760748,-73.97967,18.0
790,0,M7,400941,16,AV OF THE AMERICAS/W 54 ST,40.762617,-73.978301,18.0
791,0,M7,404992,17,AV OF THE AMERICAS/W 57 ST,40.764401,-73.977001,18.0
835,0,M11,401408,16,10 AV/W 45 ST,40.761749,-73.993798,18.0
836,0,M11,401409,17,10 AV/W 47 ST,40.763025,-73.992874,18.0
837,0,M11,401410,18,10 AV/W 49 ST,40.764272,-73.991957,18.0
838,0,M11,401411,19,10 AV/W 53 ST,40.766418,-73.990397,18.0
839,0,M11,401412,20,10 AV/W 55 ST,40.768029,-73.989275,18.0
840,0,M11,401413,21,10 AV/W 57 ST,40.768926,-73.988563,18.0
883,0,M10,403846,1,8 AV/W  57 ST,40.76674,-73.982683,18.0
923,0,M104,404872,3,8 AV/W 46 ST,40.759796,-73.987859,18.0
924,0,M104,404846,4,8 AV/W 49 ST,40.761902,-73.986239,18.0
925,0,M104,401239,5,8 AV/W 52 ST,40.763788,-73.984867,18.0
926,0,M104,405393,6,8 AV/W  56 ST,40.766284,-73.983072,18.0
1018,0,M4,400360,7,MADISON AV/E 49 ST,40.757755,-73.975576,18.0
1019,0,M4,400363,10,MADISON AV/E 57 ST,40.762858,-73.971838,18.0
1032,0,M4,400358,6,MADISON AV/E 45 ST,40.755233,-73.977403,18.0
1033,0,M4,400361,8,MADISON AV/E 52 ST,40.759636,-73.974182,18.0
1034,0,M4,400362,9,MADISON AV/E 55  ST,40.76114,-73.973144,18.0
1098,0,M50,402160,2,12 AV/W 43 ST,40.762552,-74.000157,18.0
1099,0,M50,402161,3,12 AV/W 46 ST,40.764287,-73.998337,18.0
1100,0,M50,402162,4,12 AV/W 48 ST,40.765583,-73.997431,18.0
1101,0,M50,402163,5,W 50 ST/12 AV,40.766621,-73.996653,18.0
1102,0,M50,402164,6,W 50 ST/11 AV,40.765735,-73.994534,18.0
1103,0,M50,402165,7,W 50 ST/10 AV,40.764502,-73.991704,18.0
1104,0,M50,402166,8,W 50 ST/9 AV,40.763468,-73.989101,18.0
1105,0,M50,402167,9,W 50 ST/8 AV,40.762023,-73.985792,18.0
1106,0,M50,403760,10,W 50 ST/7 AV,40.761062,-73.983503,18.0
1107,0,M50,402169,11,W 50 ST/AV OF THE AMERICAS,40.759675,-73.980215,18.0
1108,0,M50,402171,12,E 50 ST/5 AV,40.758431,-73.977104,18.0
1109,0,M50,402172,13,E 50 ST/MADISON AV,40.757723,-73.975397,18.0
1348,1,M57,400745,13,W 57 ST/BROADWAY,40.766518,-73.982248,18.0
1349,1,M57,402233,14,W 57 ST/9 AV,40.768068,-73.985902,18.0
1350,1,M57,403986,15,W 57 ST/10 AV,40.769323,-73.988953,18.0
1351,1,M57,405562,16,11 AV/W 58 ST,40.771083,-73.990735,18.0
1366,1,M57,403617,8,E 57 ST/LEXINGTON AV,40.761183,-73.969508,18.0
1367,1,M57,803117,9,E 57 ST/MADISON AV,40.762383,-73.972425,18.0
1368,1,M57,402228,10,W 57 ST/5 AV,40.763167,-73.974327,18.0
1369,1,M57,402229,11,W 57 ST/AV OF THE AMERICAS,40.764577,-73.977639,18.0
1370,1,M57,400744,12,W 57 ST/7 AV,40.765736,-73.980402,18.0
1371,1,M12,400745,2,W 57 ST/BROADWAY,40.766518,-73.982248,18.0
1372,1,M12,402233,3,W 57 ST/9 AV,40.768068,-73.985902,18.0
1373,1,M12,403986,4,W 57 ST/10 AV,40.769323,-73.988953,18.0
1376,1,M12,803008,1,W 58 St/BROADWAY,40.767088,-73.981842,18.0
1377,1,M12,403987,5,11 AV/W 57 ST,40.770024,-73.991693,18.0
1378,1,M12,405443,6,11 AV/W 54 ST,40.76823,-73.99301,18.0
1379,1,M12,405444,7,11 AV/W 50 ST,40.765989,-73.994643,18.0
1380,1,M12,405445,8,11 AV/ W 47 ST,40.764108,-73.996012,18.0
1381,1,M12,405446,9,11 AV/W 44 ST,40.762,-73.997587,18.0
1391,1,M31,400745,24,W 57 ST/BROADWAY,40.766518,-73.982248,18.0
1392,1,M31,402233,25,W 57 ST/9 AV,40.768068,-73.985902,18.0
1393,1,M31,403986,26,W 57 ST/10 AV,40.769323,-73.988953,18.0
1398,1,M31,403617,19,E 57 ST/LEXINGTON AV,40.761183,-73.969508,18.0
1399,1,M31,803117,20,E 57 ST/MADISON AV,40.762383,-73.972425,18.0
1400,1,M31,402228,21,W 57 ST/5 AV,40.763167,-73.974327,18.0
1401,1,M31,402229,22,W 57 ST/AV OF THE AMERICAS,40.764577,-73.977639,18.0
1402,1,M31,400744,23,W 57 ST/7 AV,40.765736,-73.980402,18.0
1417,1,M31,903074,27,W 54 ST/11 AV,40.768191,-73.992545,18.0
1439,1,M5,903233,48,COL circle- does not stop,40.768057,-73.982525,18.0
1440,1,M5,400861,49,COLUMBUS CIR/8 AV,40.767676,-73.982261,18.0
1441,1,M5,403781,50,CENTRAL PK S/COLUMBUS CI,40.767567,-73.980989,18.0
1446,1,M5,403266,53,5 AV/W 56 ST,40.761799,-73.974937,18.0
1447,1,M5,400514,54,5 AV/W 52 ST,40.759924,-73.976306,18.0
1448,1,M5,450123,55,5 AV/W 50 ST,40.75888,-73.977029,18.0
1449,1,M5,400516,56,5 AV/W 46 ST,40.756156,-73.979047,18.0
1486,1,M5,403047,51,CENTRAL PK S/AVE OF THE AMERICAS,40.765655,-73.976441,18.0
1487,1,M5,402446,52,5 AV/W 58 ST,40.763251,-73.973803,18.0
1664,1,M20,903233,3,COL circle- does not stop,40.768057,-73.982525,18.0
1665,1,M20,400861,4,COLUMBUS CIR/8 AV,40.767676,-73.982261,18.0
1666,1,M20,403781,5,CENTRAL PK S/COLUMBUS CI,40.767567,-73.980989,18.0
1667,1,M20,400948,6,7 AV/WEST 58 ST,40.766137,-73.979694,18.0
1668,1,M20,405293,7,7 AV/WEST 55 ST,40.763975,-73.981348,18.0
1669,1,M20,400951,8,7 AV/W 53 ST,40.762793,-73.982131,18.0
1670,1,M20,403797,9,7 AV/W 50 ST,40.760853,-73.983568,18.0
1867,1,M2,403266,53,5 AV/W 56 ST,40.761799,-73.974937,18.0
1868,1,M2,400514,54,5 AV/W 52 ST,40.759924,-73.976306,18.0
1869,1,M2,450123,55,5 AV/W 50 ST,40.75888,-73.977029,18.0
1870,1,M2,400516,56,5 AV/W 46 ST,40.756156,-73.979047,18.0
1916,1,M1,403266,39,5 AV/W 56 ST,40.761799,-73.974937,18.0
1917,1,M1,400514,40,5 AV/W 52 ST,40.759924,-73.976306,18.0
1918,1,M1,400516,42,5 AV/W 46 ST,40.756156,-73.979047,18.0
1920,1,M1,400515,41,5 AV/W 49 ST,40.758031,-73.977678,18.0
1978,1,M3,403266,60,5 AV/W 56 ST,40.761799,-73.974937,18.0
1979,1,M3,400514,61,5 AV/W 52 ST,40.759924,-73.976306,18.0
1980,1,M3,450123,62,5 AV/W 50 ST,40.75888,-73.977029,18.0
1981,1,M3,400516,63,5 AV/W 46 ST,40.756156,-73.979047,18.0
2090,1,M103,404171,27,LEXINGTON AV/E 59 ST,40.762106,-73.968336,18.0
2091,1,M103,402838,28,LEXINGTON AV/E 56 ST,40.76012,-73.969776,18.0
2092,1,M103,803163,29,LEXINGTON AV/E 52 ST,40.757636,-73.971598,18.0
2093,1,M103,403424,30,LEXINGTON AV/E 50 ST,40.756586,-73.972348,18.0
2094,1,M103,402841,31,LEXINGTON AV/E 49 ST,40.755518,-73.973132,18.0
2095,1,M103,402842,32,LEXINGTON AV/E 47 ST,40.754284,-73.974034,18.0
2123,1,M7,903233,39,COL circle- does not stop,40.768057,-73.982525,18.0
2124,1,M7,400861,40,COLUMBUS CIR/8 AV,40.767676,-73.982261,18.0
2125,1,M7,403781,41,CENTRAL PK S/COLUMBUS CI,40.767567,-73.980989,18.0
2126,1,M7,400951,44,7 AV/W 53 ST,40.762793,-73.982131,18.0
2127,1,M7,403797,45,7 AV/W 50 ST,40.760853,-73.983568,18.0
2142,1,M7,400950,43,7 AV/W 54 ST,40.763718,-73.981405,18.0
2175,1,M7,405291,42,7 AV/W 57 ST,40.765727,-73.980083,18.0
2212,1,M11,401489,37,9 AV/W 59 ST,40.768953,-73.985086,18.0
2213,1,M11,401490,38,9 AV/W 57 ST,40.767674,-73.986043,18.0
2214,1,M11,401491,39,9 AV/W 55 ST,40.766555,-73.986769,18.0
2215,1,M11,401492,40,9 AV/W 52 ST,40.764526,-73.988336,18.0
2216,1,M11,401493,41,9 AV/W 50 ST,40.763294,-73.989235,18.0
2217,1,M11,401495,42,9 AV/W 46 ST,40.760764,-73.99108,18.0
2218,1,M11,401496,43,9 AV/W 44 ST,40.759839,-73.99172,18.0
2235,1,M10,903233,46,COL circle- does not stop,40.768057,-73.982525,18.0
2236,1,M10,400861,47,COLUMBUS CIR/8 AV,40.767676,-73.982261,18.0
2280,1,M10,903234,48,W 58 ST/BROADWAY (does not stop),40.767493,-73.981747,18.0
2281,1,M10,405376,49,BROADWAY/WEST 57 ST,40.766529,-73.981964,18.0
2283,1,M104,903233,34,COL circle- does not stop,40.768057,-73.982525,18.0
2284,1,M104,400861,35,COLUMBUS CIR/8 AV,40.767676,-73.982261,18.0
2285,1,M104,400948,37,7 AV/WEST 58 ST,40.766137,-73.979694,18.0
2286,1,M104,400951,40,7 AV/W 53 ST,40.762793,-73.982131,18.0
2287,1,M104,403797,41,7 AV/W 50 ST,40.760853,-73.983568,18.0
2321,1,M104,903169,36,central park south/7 Av (does not stop),40.766677,-73.979519,18.0
2322,1,M104,404050,38,7 AV/W 56 ST,40.764984,-73.980553,18.0
2323,1,M104,400950,39,7 AV/W 54 ST,40.763718,-73.981405,18.0
2399,1,M4,403266,65,5 AV/W 56 ST,40.761799,-73.974937,18.0
2400,1,M4,400514,66,5 AV/W 52 ST,40.759924,-73.976306,18.0
2401,1,M4,400516,68,5 AV/W 46 ST,40.756156,-73.979047,18.0
2435,1,M4,400515,67,5 AV/W 49 ST,40.758031,-73.977678,18.0
2461,1,M50,402186,4,E 49 ST/LEXINGTON AV,40.756139,-73.97308,18.0
2462,1,M50,402188,5,E 49 ST/MADISON AV,40.75744,-73.976217,18.0
2463,1,M50,402189,6,W 49 ST/5 AV,40.758113,-73.978021,18.0
2464,1,M50,402191,7,W 49 ST/AV OF THE AMERICAS,40.759503,-73.981121,18.0
2465,1,M50,404035,8,W 49 ST/7 AV,40.760705,-73.98407,18.0
2466,1,M50,404948,9,W 49 ST/8 AV,40.761998,-73.987034,18.0
2467,1,M50,402194,10,W 49 ST/9 AV,40.763033,-73.989557,18.0
2468,1,M50,402195,11,W 49 ST/10 AV,40.7641,-73.991985,18.0
2469,1,M50,403954,12,W 49 ST/11 AV,40.765477,-73.995473,18.0
2470,1,M50,403955,13,W 49 ST/12 AV,40.766193,-73.997183,18.0
2471,1,M50,403956,14,12 AV/W 46 ST,40.76446,-73.998687,18.0
2526,1,M101,404171,60,LEXINGTON AV/E 59 ST,40.762106,-73.968336,18.0
2527,1,M101,402838,61,LEXINGTON AV/E 56 ST,40.76012,-73.969776,18.0
2528,1,M101,803163,62,LEXINGTON AV/E 52 ST,40.757636,-73.971598,18.0
2529,1,M101,403424,63,LEXINGTON AV/E 50 ST,40.756586,-73.972348,18.0
2530,1,M101,402841,64,LEXINGTON AV/E 49 ST,40.755518,-73.973132,18.0
2531,1,M101,402842,65,LEXINGTON AV/E 47 ST,40.754284,-73.974034,18.0
2657,1,M102,404171,39,LEXINGTON AV/E 59 ST,40.762106,-73.968336,18.0
2658,1,M102,402838,40,LEXINGTON AV/E 56 ST,40.76012,-73.969776,18.0
2659,1,M102,803163,41,LEXINGTON AV/E 52 ST,40.757636,-73.971598,18.0
2660,1,M102,403424,42,LEXINGTON AV/E 50 ST,40.756586,-73.972348,18.0
2661,1,M102,402841,43,LEXINGTON AV/E 49 ST,40.755518,-73.973132,18.0
2662,1,M102,402842,44,LEXINGTON AV/E 47 ST,40.754284,-73.974034,18.0
15,0,M57,402214,16,E 57 ST/LEXINGTON AV,40.760727,-73.968725,17.0
16,0,M57,402215,17,E 57 ST/3 AV,40.75991,-73.966804,17.0
17,0,M57,402216,18,E 57 ST/2 AV,40.759086,-73.96486,17.0
18,0,M57,401704,19,1 AV/E 57 ST,40.758829,-73.962462,17.0
48,0,M31,402214,10,E 57 ST/LEXINGTON AV,40.760727,-73.968725,17.0
49,0,M31,402215,11,E 57 ST/3 AV,40.75991,-73.966804,17.0
50,0,M31,402216,12,E 57 ST/2 AV,40.759086,-73.96486,17.0
59,0,M31,402217,13,E 57 ST/1 AV,40.758095,-73.962478,17.0
60,0,M31,402218,14,E 57 ST/SUTTON PL,40.757658,-73.961488,17.0
61,0,M31,402328,15,SUTTON PL/SUTTON SQ,40.75826,-73.959957,17.0
153,0,M15+,401704,13,1 AV/E 57 ST,40.758829,-73.962462,17.0
164,0,M15+,403480,10,1 AV/E 34 ST,40.744172,-73.973187,17.0
165,0,M15+,401698,11,1 AV/E 42 ST,40.749251,-73.969332,17.0
166,0,M15+,401701,12,1 AV/MITCHELL PL,40.753591,-73.966311,17.0
174,0,M15,401704,35,1 AV/E 57 ST,40.758829,-73.962462,17.0
188,0,M15,403480,27,1 AV/E 34 ST,40.744172,-73.973187,17.0
189,0,M15,401698,30,1 AV/E 42 ST,40.749251,-73.969332,17.0
190,0,M15,401701,32,1 AV/MITCHELL PL,40.753591,-73.966311,17.0
213,0,M15,401694,26,1 AV/E 31 ST,40.741957,-73.974808,17.0
214,0,M15,401696,28,1 AV/E 36 ST,40.745324,-73.972349,17.0
215,0,M15,401697,29,1 AV/E 39 ST,40.747191,-73.970988,17.0
216,0,M15,401699,31,1 AV/E 45 ST,40.750684,-73.96846,17.0
217,0,M15,401702,33,1 AV/E 52 ST,40.755395,-73.964983,17.0
218,0,M15,401703,34,1 AV/E 55 ST,40.75726,-73.963631,17.0
461,0,M2,400354,11,MADISON AV/E 34 ST,40.748328,-73.982437,17.0
495,0,M2,403456,12,MADISON AV/E 37 ST,40.750124,-73.981081,17.0
519,0,M1,400354,16,MADISON AV/E 34 ST,40.748328,-73.982437,17.0
535,0,M1,403456,17,MADISON AV/E 37 ST,40.750124,-73.981081,17.0
585,0,M3,400354,11,MADISON AV/E 34 ST,40.748328,-73.982437,17.0
605,0,M3,403456,12,MADISON AV/E 37 ST,40.750124,-73.981081,17.0
664,0,M34+,401826,10,E 34 ST/3 AV,40.745446,-73.977711,17.0
665,0,M34+,401827,11,E 34 ST/2 AV,40.744771,-73.976091,17.0
677,0,M34A+,401826,9,E 34 ST/3 AV,40.745446,-73.977711,17.0
678,0,M34A+,401827,10,E 34 ST/2 AV,40.744771,-73.976091,17.0
725,0,M103,402634,19,3 AV/E 31 ST,40.743707,-73.979544,17.0
726,0,M103,403427,20,3 AV/E 33 ST,40.745188,-73.978434,17.0
727,0,M103,402677,21,3 AV/E 37 ST,40.747988,-73.97637,17.0
728,0,M103,402678,22,3 AV/E 39 ST,40.749176,-73.975519,17.0
729,0,M103,402679,23,3 AV/E 42 ST,40.751085,-73.974122,17.0
730,0,M103,402680,24,3 AV/E 45 ST,40.752407,-73.973161,17.0
731,0,M103,402681,25,3 AV/E 47 ST,40.754234,-73.97185,17.0
732,0,M103,402682,26,3 AV/E 50 ST,40.755505,-73.970922,17.0
733,0,M103,405488,27,3 AV/E 53 ST,40.757751,-73.969235,17.0
734,0,M103,405480,28,3 AV/E 57 ST,40.76014,-73.967523,17.0
1016,0,M4,400354,2,MADISON AV/E 34 ST,40.748328,-73.982437,17.0
1030,0,M4,403456,3,MADISON AV/E 37 ST,40.750124,-73.981081,17.0
1092,0,M42,403245,13,E 42 ST/LEXINGTON AV,40.751149,-73.975605,17.0
1093,0,M42,403246,14,E 42 ST/3 AV,40.750775,-73.974499,17.0
1094,0,M42,403247,15,E 42 ST/2 AV,40.749581,-73.971881,17.0
1095,0,M42,403248,16,E 42 ST/1 AV,40.748582,-73.969655,17.0
1096,0,M42,903046,17,E 41 ST/1 AV,40.747979,-73.969789,17.0
1110,0,M50,402173,14,E 50 ST/LEXINGTON AV,40.756243,-73.972135,17.0
1111,0,M50,402174,15,E 50 ST/3 AV,40.755545,-73.970482,17.0
1112,0,M50,402175,16,E 50 ST/2 AV,40.754881,-73.9688,17.0
1113,0,M50,803151,17,49 ST/1 AV,40.753385,-73.966854,17.0
1159,0,M101,402634,10,3 AV/E 31 ST,40.743707,-73.979544,17.0
1160,0,M101,403427,11,3 AV/E 33 ST,40.745188,-73.978434,17.0
1161,0,M101,402677,12,3 AV/E 37 ST,40.747988,-73.97637,17.0
1162,0,M101,402678,13,3 AV/E 39 ST,40.749176,-73.975519,17.0
1163,0,M101,402679,14,3 AV/E 42 ST,40.751085,-73.974122,17.0
1164,0,M101,402680,15,3 AV/E 45 ST,40.752407,-73.973161,17.0
1165,0,M101,402681,16,3 AV/E 47 ST,40.754234,-73.97185,17.0
1166,0,M101,402682,17,3 AV/E 50 ST,40.755505,-73.970922,17.0
1167,0,M101,405488,18,3 AV/E 53 ST,40.757751,-73.969235,17.0
1168,0,M101,405480,19,3 AV/E 57 ST,40.76014,-73.967523,17.0
1289,0,M102,402634,10,3 AV/E 31 ST,40.743707,-73.979544,17.0
1290,0,M102,403427,11,3 AV/E 33 ST,40.745188,-73.978434,17.0
1291,0,M102,402677,12,3 AV/E 37 ST,40.747988,-73.97637,17.0
1292,0,M102,402678,13,3 AV/E 39 ST,40.749176,-73.975519,17.0
1293,0,M102,402679,14,3 AV/E 42 ST,40.751085,-73.974122,17.0
1294,0,M102,402680,15,3 AV/E 45 ST,40.752407,-73.973161,17.0
1295,0,M102,402681,16,3 AV/E 47 ST,40.754234,-73.97185,17.0
1296,0,M102,402682,17,3 AV/E 50 ST,40.755505,-73.970922,17.0
1297,0,M102,405488,18,3 AV/E 53 ST,40.757751,-73.969235,17.0
1298,0,M102,405480,19,3 AV/E 57 ST,40.76014,-73.967523,17.0
1360,1,M57,404266,2,SUTTON PL/E 58 ST,40.757808,-73.96043,17.0
1361,1,M57,404037,3,SUTTON PLACE/E 55 ST,40.756196,-73.961653,17.0
1362,1,M57,402221,4,E 55 ST/1 AV,40.756998,-73.963634,17.0
1363,1,M57,402222,5,E 57 ST/1 AV,40.758562,-73.963301,17.0
1364,1,M57,402223,6,E 57 ST/2 AV,40.75957,-73.965679,17.0
1365,1,M57,402224,7,E 57 ST/3 AV,40.760521,-73.967931,17.0
1394,1,M31,404266,15,SUTTON PL/E 58 ST,40.757808,-73.96043,17.0
1395,1,M31,402222,16,E 57 ST/1 AV,40.758562,-73.963301,17.0
1396,1,M31,402223,17,E 57 ST/2 AV,40.75957,-73.965679,17.0
1397,1,M31,402224,18,E 57 ST/3 AV,40.760521,-73.967931,17.0
1507,1,M15+,401765,9,2 AV/E 57 ST,40.758987,-73.965601,17.0
1508,1,M15+,401768,10,2 AV/E 50 ST,40.754623,-73.968787,17.0
1509,1,M15+,401771,11,2 AV/E 42 ST,40.749502,-73.972517,17.0
1510,1,M15+,405342,12,2 AV/E 32 ST,40.744211,-73.97635,17.0
1527,1,M15,401765,28,2 AV/E 57 ST,40.758987,-73.965601,17.0
1528,1,M15,401768,30,2 AV/E 50 ST,40.754623,-73.968787,17.0
1529,1,M15,401771,32,2 AV/E 42 ST,40.749502,-73.972517,17.0
1558,1,M15,403887,29,2 AV/E 54 ST,40.757149,-73.966937,17.0
1559,1,M15,401769,31,2 AV/E 46 ST,40.752481,-73.970371,17.0
1560,1,M15,401772,33,2 AV/E 39 ST,40.747638,-73.97388,17.0
1561,1,M15,404909,34,2 AV/E 36 ST,40.746181,-73.974949,17.0
1562,1,M15,903266,35,2 AV/E 33 ST,40.743851,-73.976632,17.0
1563,1,M15,401775,36,2 AV/E 31 ST,40.742638,-73.977523,17.0
2021,1,M34+,403359,3,E 34 ST/1 AV,40.744007,-73.97394,17.0
2022,1,M34+,403216,4,E 34 ST/2 AV,40.74504,-73.976264,17.0
2023,1,M34+,401840,5,E 34 ST/3 AV,40.745998,-73.978634,17.0
2024,1,M34+,401842,6,E 34 ST/PARK AV,40.747234,-73.981547,17.0
2038,1,M34A+,403359,3,E 34 ST/1 AV,40.744007,-73.97394,17.0
2039,1,M34A+,403216,4,E 34 ST/2 AV,40.74504,-73.976264,17.0
2040,1,M34A+,401840,5,E 34 ST/3 AV,40.745998,-73.978634,17.0
2041,1,M34A+,401842,6,E 34 ST/PARK AV,40.747234,-73.981547,17.0
2098,1,M103,402845,35,LEXINGTON AV/E 40 ST,40.749766,-73.977317,17.0
2099,1,M103,402846,36,LEXINGTON AV/E 37 ST,40.748387,-73.978325,17.0
2440,1,M42,403249,1,E 41 ST/1 AV,40.747864,-73.969576,17.0
2441,1,M42,403251,2,E 42 ST/1 AV,40.749076,-73.970286,17.0
2442,1,M42,403252,3,E 42 ST/2 AV,40.750086,-73.972599,17.0
2443,1,M42,403253,4,E 42 ST/3 AV,40.751014,-73.974764,17.0
2444,1,M42,403254,5,E 42 ST/LEXINGTON AV,40.751484,-73.975911,17.0
2458,1,M50,402183,1,E 49 ST/1 AV,40.753508,-73.966967,17.0
2459,1,M50,405193,2,E 49 ST/2 Av,40.75449,-73.969364,17.0
2460,1,M50,402185,3,E 49 ST/3 AV,40.755381,-73.971417,17.0
2534,1,M101,402845,68,LEXINGTON AV/E 40 ST,40.749766,-73.977317,17.0
2535,1,M101,402846,69,LEXINGTON AV/E 37 ST,40.748387,-73.978325,17.0
2665,1,M102,402845,47,LEXINGTON AV/E 40 ST,40.749766,-73.977317,17.0
2666,1,M102,402846,48,LEXINGTON AV/E 37 ST,40.748387,-73.978325,17.0
19,0,M57,405138,20,1 AV/E 60 ST,40.759751,-73.961795,19.0
20,0,M57,903094,21,E 60 ST/YORK AV,40.759519,-73.959889,19.0
51,0,M31,401877,23,YORK AV/E 79 ST,40.77158,-73.950235,19.0
52,0,M31,401909,26,YORK AV/E 86 ST,40.776343,-73.946753,19.0
53,0,M31,401910,27,YORK AV/E 88 ST,40.777473,-73.94591,19.0
54,0,M31,403367,28,E 91 ST/YORK AV,40.779214,-73.944942,19.0
55,0,M31,403383,29,1 AV/E 91 ST,40.780248,-73.946809,19.0
62,0,M31,404154,16,YORK AV/E 60 ST,40.759558,-73.958987,19.0
63,0,M31,402330,17,YORK AV/E 63 ST,40.761483,-73.95757,19.0
64,0,M31,402331,18,YORK AV/E 66 ST,40.763333,-73.95624,19.0
65,0,M31,403563,19,YORK AV/E 69 ST,40.764813,-73.955165,19.0
66,0,M31,402334,20,YORK AV/E 72 ST,40.767166,-73.95344,19.0
67,0,M31,803159,21,YORK AV/E 74 ST,40.768271,-73.952657,19.0
68,0,M31,402336,22,YORK AV/E 76 ST,40.769679,-73.951606,19.0
69,0,M31,402338,24,YORK AV/E 82 ST,40.773596,-73.948771,19.0
70,0,M31,402339,25,YORK AV/E 84 ST,40.774863,-73.947842,19.0
71,0,M31,904918,30,EAST 92 ST/YORK AV,40.779873,-73.944774,19.0
74,0,M72,403494,10,E 65 ST/5 AV,40.767811,-73.969931,19.0
75,0,M72,400027,11,MADISON AV/E 65 ST,40.76758,-73.968375,19.0
83,0,M72,405489,12,MADISON AV/E 67 ST,40.768789,-73.967515,19.0
84,0,M72,400029,13,MADISON AV/E 69 ST,40.770075,-73.966558,19.0
85,0,M72,402290,14,E 72 ST/MADISON AV,40.771502,-73.964994,19.0
86,0,M72,402292,15,E 72 ST/LEXINGTON AV,40.770268,-73.962107,19.0
87,0,M72,402293,16,E 72 ST/3 AV,40.769518,-73.960284,19.0
88,0,M72,405365,17,E 72 ST/2 AV,40.768711,-73.958282,19.0
89,0,M72,402295,18,E 72 ST/1 AV,40.767672,-73.955852,19.0
90,0,M72,803058,19,E 72 ST/YORK AV,40.766958,-73.954141,19.0
167,0,M15+,401707,14,1 AV/E 67 ST,40.76487,-73.958109,19.0
168,0,M15+,401712,15,1 AV/E 79 ST,40.772633,-73.952403,19.0
169,0,M15+,401715,16,1 AV/E 86 ST,40.777168,-73.94911,19.0
175,0,M15,405138,36,1 AV/E 60 ST,40.759751,-73.961795,19.0
191,0,M15,401707,39,1 AV/E 67 ST,40.76487,-73.958109,19.0
192,0,M15,401712,44,1 AV/E 79 ST,40.772633,-73.952403,19.0
193,0,M15,401715,46,1 AV/E 86 ST,40.777168,-73.94911,19.0
219,0,M15,404253,37,1 AV/E 62 ST,40.761632,-73.960457,19.0
220,0,M15,401706,38,1 AV/E 64 ST,40.762984,-73.959485,19.0
221,0,M15,401708,40,1 AV/E 70 ST,40.766741,-73.956738,19.0
222,0,M15,401709,41,1 AV/E 72 ST,40.768087,-73.955742,19.0
223,0,M15,401710,42,1 AV/E 75 ST,40.769986,-73.95435,19.0
224,0,M15,401711,43,1 AV/E 77 ST,40.771254,-73.953421,19.0
225,0,M15,405100,45,1 AV/E 82 ST,40.774585,-73.950985,19.0
226,0,M15,401716,47,1 AV/E 89 ST,40.779039,-73.947728,19.0
227,0,M15,401718,48,1 AV/E 93 ST,40.781562,-73.945891,19.0
438,0,M2,400029,24,MADISON AV/E 69 ST,40.770075,-73.966558,19.0
465,0,M2,400028,23,MADISON AV/E 67 ST,40.768812,-73.967483,19.0
466,0,M2,400030,25,MADISON AV/E 72 ST,40.771802,-73.965308,19.0
467,0,M2,400033,28,MADISON AV/E 81 ST,40.777452,-73.961191,19.0
468,0,M2,400036,30,MADISON AV/E 86 ST,40.781155,-73.958483,19.0
469,0,M2,404191,34,MADISON AV/E 95 ST,40.78708,-73.954126,19.0
500,0,M2,400364,20,MADISON AV/E 60  ST,40.764673,-73.970473,19.0
501,0,M2,400026,21,MADISON AV/E 63 ST,40.766274,-73.969329,19.0
502,0,M2,404994,22,MADISON AV/E 66 ST,40.767836,-73.968184,19.0
503,0,M2,400031,26,MADISON AV/E 74 ST,40.772774,-73.96461,19.0
504,0,M2,400032,27,MADISON AV/E 77 ST,40.775322,-73.962739,19.0
505,0,M2,400034,29,MADISON AV/E 83 ST,40.778793,-73.960206,19.0
506,0,M2,400037,31,MADISON AV/E 89 ST,40.782676,-73.957373,19.0
507,0,M2,400038,32,MADISON AV/E 91 ST,40.78436,-73.956137,19.0
508,0,M2,400039,33,MADISON AV/E 93 ST,40.785636,-73.955205,19.0
509,0,M1,400029,29,MADISON AV/E 69 ST,40.770075,-73.966558,19.0
523,0,M1,400028,28,MADISON AV/E 67 ST,40.768812,-73.967483,19.0
524,0,M1,400030,30,MADISON AV/E 72 ST,40.771802,-73.965308,19.0
525,0,M1,400033,33,MADISON AV/E 81 ST,40.777452,-73.961191,19.0
526,0,M1,400036,35,MADISON AV/E 86 ST,40.781155,-73.958483,19.0
527,0,M1,404191,39,MADISON AV/E 95 ST,40.78708,-73.954126,19.0
540,0,M1,400364,25,MADISON AV/E 60  ST,40.764673,-73.970473,19.0
541,0,M1,404994,27,MADISON AV/E 66 ST,40.767836,-73.968184,19.0
542,0,M1,400031,31,MADISON AV/E 74 ST,40.772774,-73.96461,19.0
543,0,M1,400032,32,MADISON AV/E 77 ST,40.775322,-73.962739,19.0
544,0,M1,400034,34,MADISON AV/E 83 ST,40.778793,-73.960206,19.0
545,0,M1,400037,36,MADISON AV/E 89 ST,40.782676,-73.957373,19.0
546,0,M1,400038,37,MADISON AV/E 91 ST,40.78436,-73.956137,19.0
547,0,M1,400039,38,MADISON AV/E 93 ST,40.785636,-73.955205,19.0
548,0,M1,405490,26,MADISON AV/E 63 ST,40.766452,-73.969245,19.0
575,0,M3,400029,24,MADISON AV/E 69 ST,40.770075,-73.966558,19.0
589,0,M3,400028,23,MADISON AV/E 67 ST,40.768812,-73.967483,19.0
590,0,M3,400030,25,MADISON AV/E 72 ST,40.771802,-73.965308,19.0
591,0,M3,400033,28,MADISON AV/E 81 ST,40.777452,-73.961191,19.0
592,0,M3,400036,30,MADISON AV/E 86 ST,40.781155,-73.958483,19.0
593,0,M3,404191,34,MADISON AV/E 95 ST,40.78708,-73.954126,19.0
610,0,M3,400364,20,MADISON AV/E 60  ST,40.764673,-73.970473,19.0
611,0,M3,400026,21,MADISON AV/E 63 ST,40.766274,-73.969329,19.0
612,0,M3,404994,22,MADISON AV/E 66 ST,40.767836,-73.968184,19.0
613,0,M3,400031,26,MADISON AV/E 74 ST,40.772774,-73.96461,19.0
614,0,M3,400032,27,MADISON AV/E 77 ST,40.775322,-73.962739,19.0
615,0,M3,400034,29,MADISON AV/E 83 ST,40.778793,-73.960206,19.0
616,0,M3,400037,31,MADISON AV/E 89 ST,40.782676,-73.957373,19.0
617,0,M3,400038,32,MADISON AV/E 91 ST,40.78436,-73.956137,19.0
618,0,M3,400039,33,MADISON AV/E 93 ST,40.785636,-73.955205,19.0
700,0,M103,402688,32,3 AV/E 67 ST,40.767113,-73.962513,19.0
701,0,M103,403432,34,3 AV/E 72 ST,40.770075,-73.960281,19.0
702,0,M103,403433,37,3 AV/E 79 ST,40.774605,-73.95697,19.0
703,0,M103,403434,39,3 AV/E 86 ST,40.778466,-73.954179,19.0
735,0,M103,403545,29,3 AV/E 60 ST,40.762558,-73.965738,19.0
736,0,M103,450051,30,3 AV/E 63 ST,40.764143,-73.964582,19.0
737,0,M103,402687,31,3 AV/E 65 ST,40.765599,-73.963509,19.0
738,0,M103,402689,33,3 AV/E 69 ST,40.768112,-73.961718,19.0
739,0,M103,402691,35,3 AV/E 75 ST,40.771857,-73.959001,19.0
740,0,M103,402692,36,3 AV/E 77 ST,40.773208,-73.95799,19.0
741,0,M103,402694,38,3 AV/E 82 ST,40.776582,-73.955559,19.0
742,0,M103,402696,40,3 AV/E 88 ST,40.780478,-73.952701,19.0
743,0,M103,402697,41,3 AV/E 91 ST,40.782258,-73.951426,19.0
744,0,M103,403765,42,3 AV/E 93 ST,40.783505,-73.950493,19.0
964,0,M66,403494,7,E 65 ST/5 AV,40.767811,-73.969931,19.0
965,0,M66,400027,8,MADISON AV/E 65 ST,40.76758,-73.968375,19.0
966,0,M66,403495,9,E 68 ST/MADISON AV,40.768993,-73.966909,19.0
967,0,M66,403497,10,E 68 ST/LEXINGTON AV,40.76765,-73.963704,19.0
968,0,M66,403993,11,E 68 ST/3 AV,40.766964,-73.962076,19.0
969,0,M66,403994,12,E 68 ST/2 AV,40.766263,-73.96043,19.0
970,0,M66,403995,13,E 68 ST/1 AV,40.76503,-73.957496,19.0
971,0,M66,403996,14,EAST 68 ST/YORK AV,40.764252,-73.95575,19.0
978,0,M79+,401870,7,E 79 ST/5 AV,40.776768,-73.963421,19.0
979,0,M79+,404858,8,E 79 ST/MADISON AV,40.77604,-73.961688,19.0
980,0,M79+,405169,9,E 79 ST/LEXINGTON AV,40.774947,-73.959139,19.0
981,0,M79+,405369,10,E 79 ST/3 AV,40.774263,-73.957413,19.0
982,0,M79+,401875,11,E 79 ST/2 AV,40.773093,-73.9547,19.0
983,0,M79+,401876,12,E 79 ST/1 AV,40.772051,-73.952224,19.0
984,0,M79+,401877,13,YORK AV/E 79 ST,40.77158,-73.950235,19.0
985,0,M79+,401878,14,E 80 ST/EAST END AV,40.771092,-73.94777,19.0
992,0,M86+,401901,7,E 84 ST/5 AV,40.779814,-73.960631,19.0
993,0,M86+,401903,8,E 86 ST/MADISON AV,40.780626,-73.958485,19.0
994,0,M86+,401905,9,E 86 ST/LEXINGTON  AV,40.779177,-73.954877,19.0
995,0,M86+,401906,10,E 86 ST/3 AV,40.778463,-73.953302,19.0
996,0,M86+,404681,11,E 86 ST/2 AV,40.77759,-73.951259,19.0
997,0,M86+,401908,12,E 86 ST/1 AV,40.776744,-73.949236,19.0
998,0,M86+,401909,13,YORK AV/E 86 ST,40.776343,-73.946753,19.0
999,0,M86+,401910,14,YORK AV/E 88 ST,40.777473,-73.94591,19.0
1000,0,M86+,403367,15,E 91 ST/YORK AV,40.779214,-73.944942,19.0
1001,0,M86+,403383,16,1 AV/E 91 ST,40.780248,-73.946809,19.0
1002,0,M4,400029,15,MADISON AV/E 69 ST,40.770075,-73.966558,19.0
1020,0,M4,400028,14,MADISON AV/E 67 ST,40.768812,-73.967483,19.0
1021,0,M4,400030,16,MADISON AV/E 72 ST,40.771802,-73.965308,19.0
1022,0,M4,400033,19,MADISON AV/E 81 ST,40.777452,-73.961191,19.0
1023,0,M4,400036,21,MADISON AV/E 86 ST,40.781155,-73.958483,19.0
1024,0,M4,404191,25,MADISON AV/E 95 ST,40.78708,-73.954126,19.0
1035,0,M4,400364,11,MADISON AV/E 60  ST,40.764673,-73.970473,19.0
1036,0,M4,400026,12,MADISON AV/E 63 ST,40.766274,-73.969329,19.0
1037,0,M4,404994,13,MADISON AV/E 66 ST,40.767836,-73.968184,19.0
1038,0,M4,400031,17,MADISON AV/E 74 ST,40.772774,-73.96461,19.0
1039,0,M4,400032,18,MADISON AV/E 77 ST,40.775322,-73.962739,19.0
1040,0,M4,400034,20,MADISON AV/E 83 ST,40.778793,-73.960206,19.0
1041,0,M4,400037,22,MADISON AV/E 89 ST,40.782676,-73.957373,19.0
1042,0,M4,400038,23,MADISON AV/E 91 ST,40.78436,-73.956137,19.0
1043,0,M4,400039,24,MADISON AV/E 93 ST,40.785636,-73.955205,19.0
1138,0,M101,402688,23,3 AV/E 67 ST,40.767113,-73.962513,19.0
1139,0,M101,403432,25,3 AV/E 72 ST,40.770075,-73.960281,19.0
1140,0,M101,403433,28,3 AV/E 79 ST,40.774605,-73.95697,19.0
1141,0,M101,403434,30,3 AV/E 86 ST,40.778466,-73.954179,19.0
1169,0,M101,403545,20,3 AV/E 60 ST,40.762558,-73.965738,19.0
1170,0,M101,450051,21,3 AV/E 63 ST,40.764143,-73.964582,19.0
1171,0,M101,402687,22,3 AV/E 65 ST,40.765599,-73.963509,19.0
1172,0,M101,402689,24,3 AV/E 69 ST,40.768112,-73.961718,19.0
1173,0,M101,402691,26,3 AV/E 75 ST,40.771857,-73.959001,19.0
1174,0,M101,402692,27,3 AV/E 77 ST,40.773208,-73.95799,19.0
1175,0,M101,402694,29,3 AV/E 82 ST,40.776582,-73.955559,19.0
1176,0,M101,402696,31,3 AV/E 88 ST,40.780478,-73.952701,19.0
1177,0,M101,402697,32,3 AV/E 91 ST,40.782258,-73.951426,19.0
1178,0,M101,403765,33,3 AV/E 93 ST,40.783505,-73.950493,19.0
1217,0,M106,803180,6,E 96 ST/5 AV,40.787657,-73.955416,19.0
1233,0,M96,404087,6,E 96 ST/5 AV,40.787657,-73.955416,19.0
1234,0,M96,401939,7,E 96 ST/MADISON AV,40.786986,-73.953853,19.0
1235,0,M96,401941,8,E 96 ST/LEXINGTON AV,40.785852,-73.951207,19.0
1236,0,M96,401942,9,E 96 ST/3 AV,40.784948,-73.948998,19.0
1237,0,M96,401943,10,E 96 ST/2 AV,40.784068,-73.946933,19.0
1239,0,M98,402688,1,3 AV/E 67 ST,40.767113,-73.962513,19.0
1240,0,M98,403432,2,3 AV/E 72 ST,40.770075,-73.960281,19.0
1241,0,M98,403433,3,3 AV/E 79 ST,40.774605,-73.95697,19.0
1242,0,M98,403434,4,3 AV/E 86 ST,40.778466,-73.954179,19.0
1257,0,M102,402688,23,3 AV/E 67 ST,40.767113,-73.962513,19.0
1258,0,M102,403432,25,3 AV/E 72 ST,40.770075,-73.960281,19.0
1259,0,M102,403433,28,3 AV/E 79 ST,40.774605,-73.95697,19.0
1260,0,M102,403434,30,3 AV/E 86 ST,40.778466,-73.954179,19.0
1299,0,M102,403545,20,3 AV/E 60 ST,40.762558,-73.965738,19.0
1300,0,M102,450051,21,3 AV/E 63 ST,40.764143,-73.964582,19.0
1301,0,M102,402687,22,3 AV/E 65 ST,40.765599,-73.963509,19.0
1302,0,M102,402689,24,3 AV/E 69 ST,40.768112,-73.961718,19.0
1303,0,M102,402691,26,3 AV/E 75 ST,40.771857,-73.959001,19.0
1304,0,M102,402692,27,3 AV/E 77 ST,40.773208,-73.95799,19.0
1305,0,M102,402694,29,3 AV/E 82 ST,40.776582,-73.955559,19.0
1306,0,M102,402696,31,3 AV/E 88 ST,40.780478,-73.952701,19.0
1307,0,M102,402697,32,3 AV/E 91 ST,40.782258,-73.951426,19.0
1308,0,M102,403765,33,3 AV/E 93 ST,40.783505,-73.950493,19.0
1359,1,M57,404938,1,E 60 ST/YORK AV,40.75931,-73.959464,19.0
1403,1,M31,405003,1,E 92 ST/YORK AV,40.779755,-73.944535,19.0
1404,1,M31,401916,2,YORK AV/E 91 ST,40.778847,-73.945062,19.0
1405,1,M31,401917,3,YORK AV/E 88 ST,40.776997,-73.946434,19.0
1406,1,M31,402345,4,YORK AV/E 86 ST,40.775777,-73.947318,19.0
1407,1,M31,402346,5,YORK AV/E 84 ST,40.774314,-73.948386,19.0
1408,1,M31,402347,6,YORK AV/E 82 ST,40.773109,-73.949262,19.0
1409,1,M31,402348,7,YORK AV/E 79 ST,40.771081,-73.950753,19.0
1410,1,M31,402349,8,YORK AV/E 77 ST,40.769815,-73.951645,19.0
1411,1,M31,403726,9,YORK AV/E 74 ST,40.768033,-73.952959,19.0
1412,1,M31,402351,10,YORK AV/E 72 ST,40.766595,-73.954011,19.0
1413,1,M31,403297,11,YORK AV/E 69 ST,40.765019,-73.955171,19.0
1414,1,M31,403735,12,YORK AV/E 67 ST,40.763371,-73.956366,19.0
1415,1,M31,402355,13,YORK AV/E 64 ST,40.761551,-73.957684,19.0
1416,1,M31,405389,14,YORK AV/E 62 ST,40.760682,-73.95831,19.0
1421,1,M72,402296,1,E 72 ST/YORK AV,40.76695,-73.954116,19.0
1422,1,M72,402298,2,E 72 ST/1 AV,40.768049,-73.956372,19.0
1423,1,M72,402299,3,E 72 ST/2 AV,40.769046,-73.958721,19.0
1424,1,M72,402300,4,E 72 ST/3 AV,40.769996,-73.960984,19.0
1425,1,M72,402301,5,E 72 ST/LEXINGTON AV,40.770658,-73.962551,19.0
1426,1,M72,402303,6,E 72 ST/MADISON AV,40.77179,-73.965247,19.0
1503,1,M15+,803182,5,2 AV/E 96 ST,40.784062,-73.947274,19.0
1504,1,M15+,903129,6,2 AV/E 86 ST,40.777996,-73.951745,19.0
1505,1,M15+,401756,7,2 AV/E 78 ST,40.772922,-73.955434,19.0
1506,1,M15+,401761,8,2 AV/E 68 ST,40.76599,-73.960476,19.0
1525,1,M15,401756,20,2 AV/E 78 ST,40.772922,-73.955434,19.0
1526,1,M15,401761,24,2 AV/E 68 ST,40.76599,-73.960476,19.0
1545,1,M15,401749,13,2 AV/E 96 ST,40.784123,-73.947258,19.0
1546,1,M15,403342,14,2 AV/E 94 ST,40.782675,-73.948302,19.0
1547,1,M15,405233,15,2 AV/E 92 ST,40.78151,-73.949159,19.0
1548,1,M15,405307,16,2 AV/E 89 ST,40.779657,-73.950523,19.0
1549,1,M15,401753,17,2 AV/E 87 ST,40.778415,-73.951437,19.0
1550,1,M15,401754,18,2 AV/E 84 ST,40.776302,-73.952953,19.0
1551,1,M15,401755,19,2 AV/E 82 ST,40.775053,-73.95387,19.0
1552,1,M15,401758,21,2 AV/E 75 ST,40.770821,-73.95695,19.0
1553,1,M15,401759,22,2 AV/E 72 ST,40.768727,-73.958485,19.0
1554,1,M15,401760,23,2 AV/E 70 ST,40.76733,-73.959501,19.0
1555,1,M15,401762,25,2 AV/E 66 ST,40.764664,-73.961439,19.0
1556,1,M15,401763,26,2 AV/E 64 ST,40.763471,-73.962314,19.0
1557,1,M15,401764,27,2 AV/E 61 ST,40.761523,-73.963754,19.0
2067,1,M103,403418,13,LEXINGTON AV/E 96 ST,40.785502,-73.951206,19.0
2068,1,M103,403419,17,LEXINGTON AV/E 86 ST,40.77931,-73.955763,19.0
2069,1,M103,402826,19,LEXINGTON AV/E 79 ST,40.774868,-73.959032,19.0
2070,1,M103,403421,22,LEXINGTON AV/E 72 ST,40.770316,-73.962352,19.0
2080,1,M103,402819,14,LEXINGTON AV/E 94 ST,40.784406,-73.952025,19.0
2081,1,M103,404947,15,LEXINGTON AV/E 92 ST,40.78294,-73.953141,19.0
2082,1,M103,405066,16,LEXINGTON AV/E 89 ST,40.78113,-73.954451,19.0
2083,1,M103,404321,18,LEXINGTON AV/E 83 ST,40.777227,-73.957311,19.0
2084,1,M103,404854,20,LEXINGTON AV/E 77 ST,40.773296,-73.960162,19.0
2085,1,M103,402829,21,LEXINGTON AV/E 74 ST,40.771396,-73.961556,19.0
2086,1,M103,402831,23,LEXINGTON AV/E 70 ST,40.768759,-73.96348,19.0
2087,1,M103,403422,24,LEXINGTON AV/E 68 ST,40.767713,-73.964248,19.0
2088,1,M103,803158,25,LEXINGTON AV/E 64 ST,40.765179,-73.966088,19.0
2089,1,M103,402835,26,LEXINGTON AV/E 62 ST,40.763812,-73.967079,19.0
2328,1,M66,403997,1,E 67 ST/YORK AV,40.763907,-73.956298,19.0
2329,1,M66,403503,2,E 67 ST/1 AV,40.764833,-73.958713,19.0
2330,1,M66,403504,3,E 67 ST/2 AV,40.76583,-73.961084,19.0
2331,1,M66,403505,4,E 67 ST/3 AV,40.766525,-73.962733,19.0
2332,1,M66,403506,5,E 67 ST/LEXINGTON AV,40.767437,-73.964888,19.0
2333,1,M66,403508,6,E 67 ST/MADISON AV,40.768571,-73.967584,19.0
2338,1,M79+,401880,1,E 79 ST/EAST END AV,40.77074,-73.948716,19.0
2339,1,M79+,401881,2,E 79 ST/YORK AV,40.7717,-73.95095,19.0
2340,1,M79+,401882,3,E 79 ST/1 AV,40.772321,-73.952437,19.0
2341,1,M79+,401883,4,E 79 ST/2 AV,40.773579,-73.955411,19.0
2342,1,M79+,401884,5,E 79 ST/3 AV,40.77454,-73.957682,19.0
2343,1,M79+,404860,6,E 79 ST/LEXINGTON AV,40.775117,-73.959104,19.0
2344,1,M79+,401887,7,E 79 ST/MADISON AV,40.776274,-73.961796,19.0
2345,1,M79+,403989,8,E 79 ST/5 AV,40.77698,-73.963475,19.0
2352,1,M86+,405003,1,E 92 ST/YORK AV,40.779755,-73.944535,19.0
2353,1,M86+,401916,2,YORK AV/E 91 ST,40.778847,-73.945062,19.0
2354,1,M86+,404859,3,YORK AV/E 87 ST,40.776178,-73.946977,19.0
2355,1,M86+,401919,4,E 86 ST/1 AV,40.776884,-73.949159,19.0
2356,1,M86+,401920,5,E 86 ST/2 AV,40.778128,-73.952115,19.0
2357,1,M86+,401921,6,E 86 ST/3 AV,40.778999,-73.954184,19.0
2358,1,M86+,401922,7,E 86 ST/LEXINGTON AV,40.779905,-73.956476,19.0
2359,1,M86+,401924,8,E 86 ST/MADISON AV,40.780881,-73.958662,19.0
2360,1,M86+,401925,9,E 86 ST/5 AV,40.781538,-73.960312,19.0
2498,1,M101,403418,46,LEXINGTON AV/E 96 ST,40.785502,-73.951206,19.0
2499,1,M101,403419,50,LEXINGTON AV/E 86 ST,40.77931,-73.955763,19.0
2500,1,M101,402826,52,LEXINGTON AV/E 79 ST,40.774868,-73.959032,19.0
2501,1,M101,403421,55,LEXINGTON AV/E 72 ST,40.770316,-73.962352,19.0
2516,1,M101,402819,47,LEXINGTON AV/E 94 ST,40.784406,-73.952025,19.0
2517,1,M101,404947,48,LEXINGTON AV/E 92 ST,40.78294,-73.953141,19.0
2518,1,M101,405066,49,LEXINGTON AV/E 89 ST,40.78113,-73.954451,19.0
2519,1,M101,404321,51,LEXINGTON AV/E 83 ST,40.777227,-73.957311,19.0
2520,1,M101,404854,53,LEXINGTON AV/E 77 ST,40.773296,-73.960162,19.0
2521,1,M101,402829,54,LEXINGTON AV/E 74 ST,40.771396,-73.961556,19.0
2522,1,M101,402831,56,LEXINGTON AV/E 70 ST,40.768759,-73.96348,19.0
2523,1,M101,403422,57,LEXINGTON AV/E 68 ST,40.767713,-73.964248,19.0
2524,1,M101,803158,58,LEXINGTON AV/E 64 ST,40.765179,-73.966088,19.0
2525,1,M101,402835,59,LEXINGTON AV/E 62 ST,40.763812,-73.967079,19.0
2615,1,M98,403418,13,LEXINGTON AV/E 96 ST,40.785502,-73.951206,19.0
2616,1,M98,403419,14,LEXINGTON AV/E 86 ST,40.77931,-73.955763,19.0
2617,1,M98,402826,15,LEXINGTON AV/E 79 ST,40.774868,-73.959032,19.0
2618,1,M98,403421,16,LEXINGTON AV/E 72 ST,40.770316,-73.962352,19.0
2619,1,M98,903105,17,LEXINGTON AV/E 68 ST,40.767745,-73.964259,19.0
2622,1,M102,403418,25,LEXINGTON AV/E 96 ST,40.785502,-73.951206,19.0
2623,1,M102,403419,29,LEXINGTON AV/E 86 ST,40.77931,-73.955763,19.0
2624,1,M102,402826,31,LEXINGTON AV/E 79 ST,40.774868,-73.959032,19.0
2625,1,M102,403421,34,LEXINGTON AV/E 72 ST,40.770316,-73.962352,19.0
2647,1,M102,402819,26,LEXINGTON AV/E 94 ST,40.784406,-73.952025,19.0
2648,1,M102,404947,27,LEXINGTON AV/E 92 ST,40.78294,-73.953141,19.0
2649,1,M102,405066,28,LEXINGTON AV/E 89 ST,40.78113,-73.954451,19.0
2650,1,M102,404321,30,LEXINGTON AV/E 83 ST,40.777227,-73.957311,19.0
2651,1,M102,404854,32,LEXINGTON AV/E 77 ST,40.773296,-73.960162,19.0
2652,1,M102,402829,33,LEXINGTON AV/E 74 ST,40.771396,-73.961556,19.0
2653,1,M102,402831,35,LEXINGTON AV/E 70 ST,40.768759,-73.96348,19.0
2654,1,M102,403422,36,LEXINGTON AV/E 68 ST,40.767713,-73.964248,19.0
2655,1,M102,803158,37,LEXINGTON AV/E 64 ST,40.765179,-73.966088,19.0
2656,1,M102,402835,38,LEXINGTON AV/E 62 ST,40.763812,-73.967079,19.0
24,0,M12,403897,2,W 14 ST/8 AV,40.740027,-74.002966,10.0
25,0,M12,405265,3,W 14 ST/9 AV,40.741148,-74.005521,10.0
26,0,M12,405152,4, W 14 St/10 AV,40.742056,-74.007914,10.0
27,0,M12,405157,5,11 AV/W 15 ST,40.743388,-74.0084,10.0
31,0,M12,404926,7,W 24 St/11 AV,40.749997,-74.007489,10.0
33,0,M12,405531,6,11 AV/ W 18 ST,40.745731,-74.007993,10.0
34,0,M12,405455,8,12 AV/ W 27 ST,40.752215,-74.007578,10.0
35,0,M12,405456,9,12 AV/W 30 ST,40.75484,-74.006232,10.0
36,0,M12,405457,10,12 AV/W 33 ST,40.756398,-74.005125,10.0
37,0,M12,405458,11,12 AV/ W 40 ST,40.760765,-74.001924,10.0
320,0,M20,401223,21,8 AV/W 14 ST,40.739885,-74.002263,10.0
321,0,M20,401224,22,8 AV/W 17 ST,40.741899,-74.000808,10.0
322,0,M20,401225,23,8 AV/W 20 ST,40.743642,-73.999538,10.0
323,0,M20,401226,24,8 AV/W 23 ST,40.745586,-73.998123,10.0
324,0,M20,401227,25,8 AV/W 25 ST,40.746845,-73.997203,10.0
325,0,M20,401229,26,8 AV/W 28 ST,40.748684,-73.995864,10.0
374,0,M14D+,450222,1,W 18 ST / 10 AV,40.744323,-74.005938,10.0
375,0,M14D+,401507,2,9 AV/W 18 ST,40.7432,-74.003816,10.0
655,0,M34+,803131,1,W 34 ST/12 AV,40.756534,-74.003941,10.0
656,0,M34+,403191,2,W 34 ST/11 AV,40.755718,-74.001906,10.0
657,0,M34+,403192,3,W 34 ST/10 AV,40.75433,-73.998776,10.0
683,0,M34A+,803099,1,9 AV/W 42 ST,40.758617,-73.99264,10.0
684,0,M34A+,405026,2,9 AV/W 40 ST,40.756899,-73.993896,10.0
688,0,M23+,404137,1,12 AV/W 23 ST,40.748728,-74.007954,10.0
689,0,M23+,404927,2,W 24 ST/12 AV,40.749969,-74.007803,10.0
690,0,M23+,404834,3,W 23 ST/11 AV,40.748632,-74.006633,10.0
691,0,M23+,402124,4,W 23 ST/10 AV,40.747425,-74.003764,10.0
692,0,M23+,402125,5,W 23 ST/9 AV,40.746244,-74.000956,10.0
693,0,M23+,402126,6,W 23 ST/8 AV,40.745059,-73.998141,10.0
817,0,M11,405265,3,W 14 ST/9 AV,40.741148,-74.005521,10.0
818,0,M11,405152,4, W 14 St/10 AV,40.742056,-74.007914,10.0
824,0,M11,405151,5,10 AV/WEST 16 ST,40.743645,-74.007041,10.0
825,0,M11,404161,6,10 AV/W 19 ST,40.745426,-74.005684,10.0
826,0,M11,401398,7,10 AV/W 21 ST,40.746615,-74.004825,10.0
827,0,M11,403802,8,10 AV/W 23 ST,40.747927,-74.003847,10.0
828,0,M11,401400,9,10 AV/W 25 ST,40.749222,-74.002905,10.0
829,0,M11,401401,10,10 AV/W 27 ST,40.750041,-74.002353,10.0
830,0,M11,401402,11,10 AV/W 30 ST,40.752373,-74.000606,10.0
831,0,M11,903267,12,10 AV/W 34 ST,40.75468,-73.999023,10.0
832,0,M11,404279,13,10 AV/W 37 ST,40.756715,-73.997444,10.0
833,0,M11,405512,14,10 AV/W 40 ST,40.758404,-73.996324,10.0
834,0,M11,401407,15,10 AV/W 42 ST,40.759847,-73.995181,10.0
1080,0,M42,803055,1,12 AV/42 ST,40.762148,-74.00144,10.0
1081,0,M42,401812,2,W 42 ST/12 AV,40.761908,-74.001056,10.0
1082,0,M42,401813,3,W 42 ST/11 AV,40.760542,-73.997928,10.0
1083,0,M42,401814,4,W 42 ST/10 AV,40.759359,-73.995076,10.0
1097,0,M50,803055,1,12 AV/42 ST,40.762148,-74.00144,10.0
1374,1,M12,450222,16,W 18 ST / 10 AV,40.744323,-74.005938,10.0
1375,1,M12,401507,17,9 AV/W 18 ST,40.7432,-74.003816,10.0
1382,1,M12,403264,10,11 AV/W 42 ST,40.760639,-73.998508,10.0
1383,1,M12,405447,11,11 AV/W 38 ST,40.758109,-74.000379,10.0
1384,1,M12,405285,12,11 AV/W 34 ST,40.755629,-74.002186,10.0
1385,1,M12,405564,13,11 AV/W 29 ST,40.752582,-74.004396,10.0
1386,1,M12,405450,14,11 AV/W 26 ST,40.750895,-74.005642,10.0
1387,1,M12,405451,15,11 AV/W 23 ST,40.748324,-74.007569,10.0
1624,1,M14A+,403896,19,W 14 ST/7 AV,40.738798,-74.000047,10.0
1625,1,M14A+,403897,20,W 14 ST/8 AV,40.740027,-74.002966,10.0
1675,1,M20,401363,14,7 AV/W 28 ST,40.747035,-73.993637,10.0
1676,1,M20,401364,15,7 AV/W 25 ST,40.745177,-73.994994,10.0
1677,1,M20,404244,16,7 AV/W 23 ST,40.743812,-73.995983,10.0
1678,1,M20,401366,17,7 AV/W 20 ST,40.742028,-73.997286,10.0
1679,1,M20,405298,18,7 AV/W 17 ST,40.740352,-73.998492,10.0
1730,1,M14D+,403896,17,W 14 ST/7 AV,40.738798,-74.000047,10.0
1731,1,M14D+,403897,18,W 14 ST/8 AV,40.740027,-74.002966,10.0
1737,1,M14D+,405265,19,W 14 ST/9 AV,40.741148,-74.005521,10.0
1738,1,M14D+,405152,20, W 14 St/10 AV,40.742056,-74.007914,10.0
1739,1,M14D+,903232,21,10 AV/W15 (does not stop),40.743029,-74.008083,10.0
1740,1,M14D+,405157,22,11 AV/W 15 ST,40.743388,-74.0084,10.0
1741,1,M14D+,903237,23,11 AV / W 17 ST,40.744417,-74.00815,10.0
2030,1,M34+,403519,12,W 34 ST/DYER AV,40.75408,-73.997736,10.0
2031,1,M34+,803079,13,W 34 ST/HUDSON BL,40.755366,-74.000858,10.0
2032,1,M34+,403816,14,11 AV/W 34 ST,40.755664,-74.002167,10.0
2033,1,M34+,803130,15,W 34 ST/12 AV,40.75667,-74.00431,10.0
2057,1,M23+,402153,10,W 23 ST/7 AV,40.744403,-73.996167,10.0
2058,1,M23+,402154,11,W 23 ST/8 AV,40.745547,-73.998888,10.0
2059,1,M23+,402155,12,W 23 ST/9 AV,40.746716,-74.001653,10.0
2060,1,M23+,403547,13,W 23 ST/10 AV,40.747919,-74.004511,10.0
2061,1,M23+,402157,14,W 23 ST/11 AV,40.748876,-74.006785,10.0
2062,1,M23+,404926,15,W 24 St/11 AV,40.749997,-74.007489,10.0
2063,1,M23+,404085,16,12 AV/W 23 ST,40.748873,-74.008035,10.0
2132,1,M7,401363,50,7 AV/W 28 ST,40.747035,-73.993637,10.0
2133,1,M7,401364,51,7 AV/W 25 ST,40.745177,-73.994994,10.0
2134,1,M7,404244,52,7 AV/W 23 ST,40.743812,-73.995983,10.0
2135,1,M7,401366,53,7 AV/W 20 ST,40.742028,-73.997286,10.0
2136,1,M7,405298,54,7 AV/W 17 ST,40.740352,-73.998492,10.0
2177,1,M11,401507,53,9 AV/W 18 ST,40.7432,-74.003816,10.0
2179,1,M11,405026,45,9 AV/W 40 ST,40.756899,-73.993896,10.0
2219,1,M11,401497,44,9 AV/W 42 ST,40.758584,-73.992665,10.0
2220,1,M11,401500,46,9 AV/W 35 ST,40.754199,-73.995867,10.0
2221,1,M11,401501,47,9 AV/W 34 ST,40.753153,-73.996625,10.0
2222,1,M11,401502,48,9 AV/W 30 ST,40.750611,-73.998473,10.0
2223,1,M11,401503,49,9 AV/W 28 ST,40.749425,-73.999343,10.0
2224,1,M11,405316,50,9 AV/W 25 ST,40.747568,-74.000712,10.0
2225,1,M11,404881,51,9 AV/W 23 ST,40.746264,-74.001642,10.0
2226,1,M11,401506,52,9 AV/W 20 ST,40.744433,-74.002977,10.0
2452,1,M42,401852,13,W 42 ST/9 AV,40.75867,-73.992979,10.0
2453,1,M42,401853,14,W 42 ST/10 AV,40.759888,-73.995834,10.0
2454,1,M42,403486,15,W 42 ST/11 AV,40.760822,-73.998047,10.0
2455,1,M42,405118,16,W 42 ST/12 AV,40.761953,-74.000937,10.0
2456,1,M42,903082,17,12 AV/W 42 ST,40.762549,-74.000971,10.0
2457,1,M50,903082,15,12 AV/W 42 ST,40.762549,-74.000971,10.0
32,0,M12,405452,1,8 Av/W 12 ST,40.737903,-74.004356,6.0
257,0,M14A+,401608,1,8 AV/BLEECKER ST,40.737379,-74.004929,6.0
258,0,M14A+,401575,2,W 14 ST/8 AV,40.739621,-74.002394,6.0
259,0,M14A+,401294,3,W 14 ST/7 AV,40.738287,-73.999271,6.0
260,0,M14A+,401577,4,W 14 ST/6 AV,40.737093,-73.996431,6.0
261,0,M14A+,401579,5,E 14 ST/UNIVERSITY PL,40.735221,-73.991933,6.0
303,0,M20,401608,19,8 AV/BLEECKER ST,40.737379,-74.004929,6.0
315,0,M20,401302,15,HUDSON ST/W HOUSTON ST,40.728924,-74.00704,6.0
316,0,M20,404133,16,HUDSON ST/BARROW ST,40.731571,-74.006534,6.0
317,0,M20,401453,17,HUDSON ST/CHRISTOPHER ST,40.733347,-74.00626,6.0
318,0,M20,401220,18,HUDSON ST/PERRY ST,40.735435,-74.005921,6.0
319,0,M20,401609,20,8 AV/W 4 ST,40.738597,-74.003533,6.0
366,0,M14D+,401575,4,W 14 ST/8 AV,40.739621,-74.002394,6.0
367,0,M14D+,401294,5,W 14 ST/7 AV,40.738287,-73.999271,6.0
368,0,M14D+,401577,6,W 14 ST/6 AV,40.737093,-73.996431,6.0
369,0,M14D+,401579,7,E 14 ST/UNIVERSITY PL,40.735221,-73.991933,6.0
376,0,M14D+,404286,3,W 14 ST/HUDSON ST,40.74062,-74.004803,6.0
399,0,M55,400919,16,6 AV/W HOUSTON ST,40.7287,-74.00254,6.0
400,0,M55,400722,17,AV OF THE AMERICAS/W 3 ST,40.730879,-74.001389,6.0
401,0,M55,400723,18,AV OF THE AMERICAS/WAVERLY PL,40.733006,-73.999838,6.0
402,0,M55,400724,19,AV OF THE AMERICAS/W 10 ST,40.734865,-73.998466,6.0
403,0,M55,400725,20,AV OF THE AMERICAS/W 12 ST,40.736155,-73.997539,6.0
416,0,M8,401528,1,WEST ST/CHRISTOPHER ST,40.732847,-74.010081,6.0
417,0,M8,401529,2,W 10 ST/WASHINGTON ST,40.73331,-74.008708,6.0
418,0,M8,403313,3,W 10 ST/GREENWICH ST,40.733501,-74.007459,6.0
419,0,M8,403312,4,W 10 ST/HUDSON ST,40.733775,-74.005849,6.0
420,0,M8,401531,5,W 10 ST/BLEECKER ST,40.734005,-74.004254,6.0
421,0,M8,401532,6,W 10 ST/7 AV S,40.734228,-74.002587,6.0
422,0,M8,401533,7,W 10 ST/WAVERLY PL,40.734489,-74.001021,6.0
423,0,M8,401535,8,GREENWICH AV/CHRISTOPHER ST,40.734143,-73.999729,6.0
424,0,M8,401536,9,W 8 ST/AV OF THE AMERICAS,40.733369,-73.999159,6.0
425,0,M8,401538,10,W 8 ST/5 AV,40.732336,-73.996709,6.0
426,0,M8,400336,11,E 8 ST/UNIVERSITY PL,40.731417,-73.994502,6.0
427,0,M8,400337,12,E 8 ST/MERCER ST,40.730576,-73.99259,6.0
822,0,M11,401393,1,BETHUNE ST/GREENWICH ST,40.736989,-74.006358,6.0
823,0,M11,405120,2,GREENWICH ST/HORATIO ST,40.738674,-74.006416,6.0
1388,1,M12,401386,18,HUDSON ST/W 13 ST,40.740187,-74.005344,6.0
1389,1,M12,401387,19,HUDSON ST/HORATIO ST,40.738853,-74.00559,6.0
1390,1,M12,903063,20,8 AV/12 ST,40.737765,-74.004512,6.0
1626,1,M14A+,405133,21,HUDSON ST/W 13 ST,40.740728,-74.005262,6.0
1627,1,M14A+,401388,22,HUDSON ST/W 12 ST,40.73767,-74.005766,6.0
1680,1,M20,405150,19,7 AV/WEST 14 ST,40.7384,-73.999883,6.0
1681,1,M20,401371,20,7 AV S/WAVERLY PL,40.735235,-74.001999,6.0
1682,1,M20,401372,21,7 AV S/W 10 ST,40.73411,-74.002648,6.0
1683,1,M20,401373,22,7 AV S/BARROW ST,40.732573,-74.003525,6.0
1684,1,M20,401374,23,7 AV S/BEDFORD ST,40.730467,-74.00473,6.0
1685,1,M20,401375,24,7 AV S/CLARKSON ST,40.729333,-74.005257,6.0
1713,1,M21,400890,15,W HOUSTON ST/GREENE ST,40.72623,-73.998164,6.0
1714,1,M21,403323,16,W HOUSTON ST/LA GUARDIA PL,40.726916,-73.999765,6.0
1715,1,M21,400719,17,W HOUSTON ST/SULLIVAN ST,40.727752,-74.001516,6.0
1716,1,M21,404940,18,W HOUSTON ST/VARICK ST,40.728569,-74.004612,6.0
1717,1,M21,403853,19,W HOUSTON ST/HUDSON ST,40.728889,-74.007303,6.0
1742,1,M55,400336,16,E 8 ST/UNIVERSITY PL,40.731417,-73.994502,6.0
1743,1,M55,400337,17,E 8 ST/MERCER ST,40.730576,-73.99259,6.0
1757,1,M55,402857,12,5 AV/W 13 ST,40.735713,-73.993952,6.0
1758,1,M55,400333,13,5 AV/W 12 ST,40.734469,-73.994847,6.0
1759,1,M55,400334,14,5 AV/W 10 ST,40.733223,-73.995749,6.0
1760,1,M55,400335,15,E 8 ST/5 AV,40.731996,-73.995926,6.0
1761,1,M55,400153,18,BROADWAY/WAVERLY PL,40.7294,-73.993516,6.0
1762,1,M55,400154,19,BROADWAY/W 3 ST,40.727539,-73.9951,6.0
1763,1,M55,400155,20,BROADWAY/BLEECKER ST,40.726263,-73.996172,6.0
1786,1,M8,400176,10,E 9 ST/BROADWAY,40.731425,-73.992408,6.0
1787,1,M8,401561,11,E 9 ST/UNIVERSITY PL,40.732356,-73.994609,6.0
1788,1,M8,401562,12,W 9 ST/5 AV,40.733089,-73.996367,6.0
1789,1,M8,401563,13,W 9 ST/AV OF THE AMERICAS,40.734156,-73.99891,6.0
1790,1,M8,401564,14,CHRISTOPHER ST/GREENWICH AV,40.734113,-73.999946,6.0
1791,1,M8,401565,15,CHRISTOPHER ST/WAVERLY PL,40.733747,-74.002197,6.0
1792,1,M8,401566,16,CHRISTOPHER ST/7 AV S,40.733577,-74.003341,6.0
1793,1,M8,401567,17,CHRISTOPHER ST/BLEECKER ST,40.733369,-74.004694,6.0
1794,1,M8,401568,18,CHRISTOPHER ST/HUDSON ST,40.733141,-74.006159,6.0
1795,1,M8,401569,19,CHRISTOPHER ST/GREENWICH ST,40.732852,-74.007927,6.0
1796,1,M8,401570,20,CHRISTOPHER ST/WASHINGTON ST,40.732666,-74.009067,6.0
1797,1,M8,903030,21,WEST ST/CHRISTOPHER ST,40.732493,-74.010128,6.0
1798,1,M2,400336,72,E 8 ST/UNIVERSITY PL,40.731417,-73.994502,6.0
1799,1,M2,400337,73,E 8 ST/MERCER ST,40.730576,-73.99259,6.0
1811,1,M2,402857,68,5 AV/W 13 ST,40.735713,-73.993952,6.0
1812,1,M2,400333,69,5 AV/W 12 ST,40.734469,-73.994847,6.0
1813,1,M2,400334,70,5 AV/W 10 ST,40.733223,-73.995749,6.0
1814,1,M2,400335,71,E 8 ST/5 AV,40.731996,-73.995926,6.0
1873,1,M1,400336,58,E 8 ST/UNIVERSITY PL,40.731417,-73.994502,6.0
1874,1,M1,400337,59,E 8 ST/MERCER ST,40.730576,-73.99259,6.0
1885,1,M1,402857,54,5 AV/W 13 ST,40.735713,-73.993952,6.0
1886,1,M1,400333,55,5 AV/W 12 ST,40.734469,-73.994847,6.0
1887,1,M1,400334,56,5 AV/W 10 ST,40.733223,-73.995749,6.0
1888,1,M1,400335,57,E 8 ST/5 AV,40.731996,-73.995926,6.0
1889,1,M1,400153,60,BROADWAY/WAVERLY PL,40.7294,-73.993516,6.0
1890,1,M1,400154,61,BROADWAY/W 3 ST,40.727539,-73.9951,6.0
1891,1,M1,400155,62,BROADWAY/BLEECKER ST,40.726263,-73.996172,6.0
1939,1,M3,400337,79,E 8 ST/MERCER ST,40.730576,-73.99259,6.0
1950,1,M3,402857,75,5 AV/W 13 ST,40.735713,-73.993952,6.0
1951,1,M3,400333,76,5 AV/W 12 ST,40.734469,-73.994847,6.0
1952,1,M3,400334,77,5 AV/W 10 ST,40.733223,-73.995749,6.0
1953,1,M3,400335,78,E 8 ST/5 AV,40.731996,-73.995926,6.0
2121,1,M7,401294,55,W 14 ST/7 AV,40.738287,-73.999271,6.0
2180,1,M11,401386,54,HUDSON ST/W 13 ST,40.740187,-74.005344,6.0
2181,1,M11,401387,55,HUDSON ST/HORATIO ST,40.738853,-74.00559,6.0
2227,1,M11,403876,56,HUDSON ST/BETHUNE ST,40.737071,-74.005867,6.0
92,0,M5,400933,2,AV OF THE AMERICAS/W 34 ST,40.74986,-73.987669,14.0
93,0,M5,404039,3,AV OF THE AMERICAS/W 38 ST,40.752139,-73.985967,14.0
94,0,M5,404040,4,AV OF THE AMERICAS/W 40 ST,40.753709,-73.984732,14.0
95,0,M5,400936,5,AV OF THE AMERICAS/W 42 ST,40.755109,-73.983786,14.0
116,0,M5,803083,1,6 AV/W 31 ST,40.748042,-73.988957,14.0
326,0,M20,404847,27,8 AV/W 31 ST,40.749952,-73.994947,14.0
327,0,M20,401231,28,8 AV/W 34 ST,40.752329,-73.993258,14.0
328,0,M20,401232,29,8 AV/W 37 ST,40.75396,-73.992034,14.0
329,0,M20,401850,30,8 AV/W 40 ST,40.756261,-73.990408,14.0
330,0,M20,404919,31,8 AV/W 43 ST,40.758004,-73.989093,14.0
410,0,M55,403769,27,AV OF THE AMERICAS/W 31 ST,40.747987,-73.988909,14.0
411,0,M55,400933,28,AV OF THE AMERICAS/W 34 ST,40.74986,-73.987669,14.0
412,0,M55,404039,29,AV OF THE AMERICAS/W 38 ST,40.752139,-73.985967,14.0
413,0,M55,404040,30,AV OF THE AMERICAS/W 40 ST,40.753709,-73.984732,14.0
414,0,M55,400936,31,AV OF THE AMERICAS/W 42 ST,40.755109,-73.983786,14.0
415,0,M55,803081,32,W 44 St/6 AV,40.755986,-73.982997,14.0
462,0,M2,400561,14,MADISON AV/E 42 ST,40.753337,-73.978759,14.0
494,0,M2,400352,10,MADISON AV/E 30 ST,40.74551,-73.984493,14.0
496,0,M2,403457,13,MADISON AV/E 40  ST,40.752018,-73.979743,14.0
520,0,M1,400561,19,MADISON AV/E 42 ST,40.753337,-73.978759,14.0
534,0,M1,400352,15,MADISON AV/E 30 ST,40.74551,-73.984493,14.0
536,0,M1,403457,18,MADISON AV/E 40  ST,40.752018,-73.979743,14.0
586,0,M3,400561,14,MADISON AV/E 42 ST,40.753337,-73.978759,14.0
604,0,M3,400352,10,MADISON AV/E 30 ST,40.74551,-73.984493,14.0
606,0,M3,403457,13,MADISON AV/E 40  ST,40.752018,-73.979743,14.0
658,0,M34+,401818,4,W 34 ST/9 AV,40.753106,-73.995857,14.0
659,0,M34+,401819,5,W 34 ST/8 AV,40.751988,-73.993312,14.0
660,0,M34+,404820,6,W 34 ST/7 AV,40.751116,-73.991115,14.0
661,0,M34+,401821,7,W 34 ST/BROADWAY,40.749624,-73.987617,14.0
662,0,M34+,401822,8,E 34 ST/5 AV,40.748192,-73.984134,14.0
663,0,M34+,401824,9,E 34 ST/PARK AV,40.746797,-73.98089,14.0
671,0,M34A+,401818,3,W 34 ST/9 AV,40.753106,-73.995857,14.0
672,0,M34A+,401819,4,W 34 ST/8 AV,40.751988,-73.993312,14.0
673,0,M34A+,404820,5,W 34 ST/7 AV,40.751116,-73.991115,14.0
674,0,M34A+,401821,6,W 34 ST/BROADWAY,40.749624,-73.987617,14.0
675,0,M34A+,401822,7,E 34 ST/5 AV,40.748192,-73.984134,14.0
676,0,M34A+,401824,8,E 34 ST/PARK AV,40.746797,-73.98089,14.0
761,0,M7,403769,7,AV OF THE AMERICAS/W 31 ST,40.747987,-73.988909,14.0
762,0,M7,400933,8,AV OF THE AMERICAS/W 34 ST,40.74986,-73.987669,14.0
763,0,M7,404039,9,AV OF THE AMERICAS/W 38 ST,40.752139,-73.985967,14.0
764,0,M7,404040,10,AV OF THE AMERICAS/W 40 ST,40.753709,-73.984732,14.0
765,0,M7,400936,11,AV OF THE AMERICAS/W 42 ST,40.755109,-73.983786,14.0
922,0,M104,404919,2,8 AV/W 43 ST,40.758004,-73.989093,14.0
934,0,M104,405374,1,W 41 ST/8 AV,40.756549,-73.990123,14.0
1017,0,M4,400561,5,MADISON AV/E 42 ST,40.753337,-73.978759,14.0
1031,0,M4,403457,4,MADISON AV/E 40  ST,40.752018,-73.979743,14.0
1077,0,M4,400353,1,32 ST/MADISON AV,40.746555,-73.984226,14.0
1084,0,M42,403238,5,W 42 ST/9 AV,40.757961,-73.991925,14.0
1085,0,M42,403239,6,W 42 ST/8 AV,40.757191,-73.989904,14.0
1086,0,M42,403240,7,W 42 ST/7 AV,40.756259,-73.987735,14.0
1087,0,M42,403241,8,W 42 ST/BROADWAY,40.755271,-73.985338,14.0
1088,0,M42,403242,9,W 42 ST/6 AV,40.754535,-73.98364,14.0
1089,0,M42,403465,10,W 42 ST/5 AV,40.753319,-73.980751,14.0
1090,0,M42,404160,11,E 42 ST/MADISON AV,40.752533,-73.978889,14.0
1091,0,M42,403459,12,E 42 ST/PARK AV,40.75188,-73.97733,14.0
1443,1,M5,400518,58,5 AV/W 41 ST,40.753191,-73.981154,14.0
1444,1,M5,400323,60,5 AV/W 35 ST,40.749477,-73.983921,14.0
1445,1,M5,400324,61,5 AV/W 33 ST,40.747494,-73.985338,14.0
1450,1,M5,405179,57,5 AV/W 44 ST,40.75487,-73.979966,14.0
1488,1,M5,400322,59,5 AV/W 39 ST,40.75131,-73.982589,14.0
1489,1,M5,803082,62,W 31 ST/6 AV,40.74779,-73.988832,14.0
1671,1,M20,404153,10,7 AV/W 41 ST,40.755484,-73.987378,14.0
1672,1,M20,401359,11,7 AV/W 37 ST,40.752568,-73.989494,14.0
1673,1,M20,401360,12,7 AV/W 34 ST,40.750627,-73.99102,14.0
1674,1,M20,401361,13,7 AV/W 31 ST,40.74886,-73.992309,14.0
1746,1,M55,803080,1,W 44 ST/6 AV,40.755891,-73.982784,14.0
1747,1,M55,400518,2,5 AV/W 41 ST,40.753191,-73.981154,14.0
1748,1,M55,400519,3,5 AV/W 38 ST,40.750927,-73.982808,14.0
1749,1,M55,400323,4,5 AV/W 35 ST,40.749477,-73.983921,14.0
1750,1,M55,400324,5,5 AV/W 33 ST,40.747494,-73.985338,14.0
1751,1,M55,400325,6,5 AV/W 31 ST,40.746263,-73.986268,14.0
1801,1,M2,400518,58,5 AV/W 41 ST,40.753191,-73.981154,14.0
1802,1,M2,400519,59,5 AV/W 38 ST,40.750927,-73.982808,14.0
1803,1,M2,400323,60,5 AV/W 35 ST,40.749477,-73.983921,14.0
1804,1,M2,400324,61,5 AV/W 33 ST,40.747494,-73.985338,14.0
1805,1,M2,400325,62,5 AV/W 31 ST,40.746263,-73.986268,14.0
1871,1,M2,405179,57,5 AV/W 44 ST,40.75487,-73.979966,14.0
1875,1,M1,400518,44,5 AV/W 41 ST,40.753191,-73.981154,14.0
1876,1,M1,400519,45,5 AV/W 38 ST,40.750927,-73.982808,14.0
1877,1,M1,400323,46,5 AV/W 35 ST,40.749477,-73.983921,14.0
1878,1,M1,400324,47,5 AV/W 33 ST,40.747494,-73.985338,14.0
1879,1,M1,400325,48,5 AV/W 31 ST,40.746263,-73.986268,14.0
1919,1,M1,405179,43,5 AV/W 44 ST,40.75487,-73.979966,14.0
1940,1,M3,400518,65,5 AV/W 41 ST,40.753191,-73.981154,14.0
1941,1,M3,400519,66,5 AV/W 38 ST,40.750927,-73.982808,14.0
1942,1,M3,400323,67,5 AV/W 35 ST,40.749477,-73.983921,14.0
1943,1,M3,400324,68,5 AV/W 33 ST,40.747494,-73.985338,14.0
1944,1,M3,400325,69,5 AV/W 31 ST,40.746263,-73.986268,14.0
1982,1,M3,405179,64,5 AV/W 44 ST,40.75487,-73.979966,14.0
2025,1,M34+,401844,7,W 34 ST/5 AV,40.748672,-73.98491,14.0
2026,1,M34+,400716,8,W 34 ST/BROADWAY,40.749982,-73.98805,14.0
2027,1,M34+,401847,9,W 34 ST/7 AV,40.75125,-73.991027,14.0
2028,1,M34+,401848,10,W 34 ST/8 AV,40.752301,-73.993588,14.0
2029,1,M34+,403528,11,W 34 ST/9 AV,40.753361,-73.996044,14.0
2034,1,M34A+,401232,11,8 AV/W 37 ST,40.75396,-73.992034,14.0
2035,1,M34A+,401850,12,8 AV/W 40 ST,40.756261,-73.990408,14.0
2042,1,M34A+,401844,7,W 34 ST/5 AV,40.748672,-73.98491,14.0
2043,1,M34A+,400716,8,W 34 ST/BROADWAY,40.749982,-73.98805,14.0
2044,1,M34A+,401847,9,W 34 ST/7 AV,40.75125,-73.991027,14.0
2045,1,M34A+,803098,10,8 AV/W 34 ST,40.752301,-73.99325,14.0
2046,1,M34A+,404116,13,W 43 ST/8 AV,40.758394,-73.99019,14.0
2047,1,M34A+,903078,14,W 43 ST/9 AV,40.75877,-73.991173,14.0
2096,1,M103,402843,33,LEXINGTON AV/E 45 ST,40.753095,-73.974905,14.0
2097,1,M103,403425,34,LEXINGTON AV/E 42 ST,40.750843,-73.976533,14.0
2100,1,M103,403821,37,LEXINGTON AV/E 34 ST,40.746226,-73.979892,14.0
2101,1,M103,403822,38,LEXINGTON AV/E 31 ST,40.744101,-73.981463,14.0
2128,1,M7,404153,46,7 AV/W 41 ST,40.755484,-73.987378,14.0
2129,1,M7,401359,47,7 AV/W 37 ST,40.752568,-73.989494,14.0
2130,1,M7,401360,48,7 AV/W 34 ST,40.750627,-73.99102,14.0
2131,1,M7,401361,49,7 AV/W 31 ST,40.74886,-73.992309,14.0
2288,1,M104,404153,43,7 AV/W 41 ST,40.755484,-73.987378,14.0
2324,1,M104,405297,42,7 AV/W 44 ST,40.757255,-73.986211,14.0
2325,1,M104,803144,44,W 41 ST/8 AV,40.756408,-73.989815,14.0
2367,1,M4,400518,70,5 AV/W 41 ST,40.753191,-73.981154,14.0
2368,1,M4,400519,71,5 AV/W 38 ST,40.750927,-73.982808,14.0
2402,1,M4,405179,69,5 AV/W 44 ST,40.75487,-73.979966,14.0
2436,1,M4,405486,72,5 AV/W 36 ST,40.749577,-73.983774,14.0
2437,1,M4,903128,73,E 32 ST/5 AV,40.746801,-73.984816,14.0
2445,1,M42,405241,6,E 42 ST/PARK AV,40.752099,-73.977395,14.0
2446,1,M42,403805,7,E 42 ST/MADISON AV,40.753093,-73.979766,14.0
2447,1,M42,403257,8,W 42 ST/5 AV,40.75357,-73.98098,14.0
2448,1,M42,403830,9,W 42 ST/AV OF THE AMERICAS,40.754994,-73.984277,14.0
2449,1,M42,403354,10,W 42 ST/BROADWAY,40.755754,-73.986046,14.0
2450,1,M42,403259,11,W 42 ST/7 AV,40.756311,-73.987399,14.0
2451,1,M42,401851,12,W 42 ST/8 AV,40.757575,-73.990464,14.0
2532,1,M101,402843,66,LEXINGTON AV/E 45 ST,40.753095,-73.974905,14.0
2533,1,M101,403425,67,LEXINGTON AV/E 42 ST,40.750843,-73.976533,14.0
2536,1,M101,403821,70,LEXINGTON AV/E 34 ST,40.746226,-73.979892,14.0
2537,1,M101,403822,71,LEXINGTON AV/E 31 ST,40.744101,-73.981463,14.0
2663,1,M102,402843,45,LEXINGTON AV/E 45 ST,40.753095,-73.974905,14.0
2664,1,M102,403425,46,LEXINGTON AV/E 42 ST,40.750843,-73.976533,14.0
2667,1,M102,403821,49,LEXINGTON AV/E 34 ST,40.746226,-73.979892,14.0
2668,1,M102,403822,50,LEXINGTON AV/E 31 ST,40.744101,-73.981463,14.0
96,0,M5,903236,42,BROADWAY/W 135 ST,40.820642,-73.954489,30.0
97,0,M5,400609,43,BROADWAY/W 137 ST,40.82124,-73.954014,30.0
98,0,M5,400610,44,BROADWAY/W 139 ST,40.822815,-73.952874,30.0
99,0,M5,400611,45,BROADWAY/W 141 ST,40.82408,-73.951948,30.0
100,0,M5,400612,46,BROADWAY/W 143 ST,40.825312,-73.951051,30.0
101,0,M5,400613,47,BROADWAY/W 145 ST,40.826791,-73.94997,30.0
102,0,M5,400614,48,BROADWAY/W 147 ST,40.827916,-73.949145,30.0
103,0,M5,400615,49,BROADWAY/W 149 ST,40.829167,-73.948237,30.0
104,0,M5,400616,50,BROADWAY/W 151 ST,40.830413,-73.947322,30.0
105,0,M5,400617,51,BROADWAY/W 153 ST,40.831697,-73.946385,30.0
115,0,M5,404019,41,W 135 ST/RIVERSIDE DR,40.820863,-73.957,30.0
627,0,M3,400405,59,ST NICHOLAS AV/W 144 ST,40.823278,-73.945037,30.0
628,0,M3,400406,60,ST NICHOLAS AV/W 145 ST,40.824338,-73.944408,30.0
629,0,M3,405227,61,ST NICHOLAS AV/W 147 ST,40.825404,-73.943522,30.0
630,0,M3,400408,62,ST NICHOLAS AV/W 151 ST,40.828325,-73.942272,30.0
631,0,M3,400409,63,ST NICHOLAS AV/W 153 ST,40.829645,-73.941744,30.0
870,0,M11,403757,54,W 135 ST/AMSTERDAM AV,40.819159,-73.95262,30.0
871,0,M11,404011,55,W 135 ST/BROADWAY,40.82044,-73.955723,30.0
872,0,M11,404012,56,W 135 ST/RIVERSIDE DR,40.821025,-73.957034,30.0
873,0,M11,404013,57,RIVERSIDE DR/W 137 ST,40.822435,-73.955855,30.0
874,0,M11,404056,58,RIVERSIDE DR/W 139 ST,40.823431,-73.955324,30.0
875,0,M11,404014,59,RIVERSIDE DR/W 142 ST,40.825464,-73.953302,30.0
876,0,M11,404015,60,RIVERSIDE DR/W 144 ST,40.826652,-73.952228,30.0
877,0,M11,803194,61,RIVERBANK/STATE PARK,40.826815,-73.955386,30.0
1045,0,M4,903236,49,BROADWAY/W 135 ST,40.820642,-73.954489,30.0
1046,0,M4,400609,50,BROADWAY/W 137 ST,40.82124,-73.954014,30.0
1047,0,M4,400610,51,BROADWAY/W 139 ST,40.822815,-73.952874,30.0
1048,0,M4,400611,52,BROADWAY/W 141 ST,40.82408,-73.951948,30.0
1049,0,M4,400612,53,BROADWAY/W 143 ST,40.825312,-73.951051,30.0
1050,0,M4,400613,54,BROADWAY/W 145 ST,40.826791,-73.94997,30.0
1051,0,M4,400614,55,BROADWAY/W 147 ST,40.827916,-73.949145,30.0
1052,0,M4,400615,56,BROADWAY/W 149 ST,40.829167,-73.948237,30.0
1053,0,M4,400616,57,BROADWAY/W 151 ST,40.830413,-73.947322,30.0
1054,0,M4,400617,58,BROADWAY/W 153 ST,40.831697,-73.946385,30.0
1196,0,M101,402520,61,AMSTERDAM AV/W 143 ST,40.824241,-73.94826,30.0
1197,0,M101,402521,62,AMSTERDAM AV/W 145 ST,40.825615,-73.947231,30.0
1198,0,M101,405103,63,AMSTERDAM AV/W 149 ST,40.827662,-73.945755,30.0
1199,0,M101,405074,64,AMSTERDAM AV/W 152 ST,40.829905,-73.944107,30.0
1452,1,M5,400656,11,BROADWAY/W 155 ST,40.832512,-73.946226,30.0
1453,1,M5,400657,12,BROADWAY/W 152 ST,40.830668,-73.947579,30.0
1454,1,M5,400658,13,BROADWAY/W 150 ST,40.829398,-73.948497,30.0
1455,1,M5,400659,14,BROADWAY/W 147 ST,40.827513,-73.949879,30.0
1456,1,M5,403483,15,BROADWAY/W 145 ST,40.826693,-73.95048,30.0
1457,1,M5,400661,16,BROADWAY/W 142 ST,40.824316,-73.952208,30.0
1458,1,M5,400662,17,BROADWAY/W 140 ST,40.823073,-73.953123,30.0
1459,1,M5,400663,18,BROADWAY/W 138 ST,40.821841,-73.954028,30.0
1464,1,M5,404011,19,W 135 ST/BROADWAY,40.82044,-73.955723,30.0
1465,1,M5,404012,20,W 135 ST/RIVERSIDE DR,40.821025,-73.957034,30.0
1829,1,M2,400268,10,W 155 ST/EDGECOMBE AV,40.830182,-73.939846,30.0
2007,1,M3,403698,17,W 155 ST/AMSTERDAM AV,40.831468,-73.942882,30.0
2008,1,M3,400466,18,ST NICHOLAS AV/W 152 ST,40.82886,-73.942257,30.0
2009,1,M3,400467,19,ST NICHOLAS AV/W 150 ST,40.827466,-73.942831,30.0
2010,1,M3,400468,20,ST NICHOLAS AV/W 148 ST,40.82571,-73.943669,30.0
2011,1,M3,400469,21,ST NICHOLAS AV/W 145 ST,40.823764,-73.945033,30.0
2012,1,M3,400470,22,ST NICHOLAS AV/W 142 ST,40.822296,-73.945724,30.0
2184,1,M11,403447,6,W 135 ST/BROADWAY,40.819614,-73.954283,30.0
2185,1,M11,403786,7,W 135 ST/AMSTERDAM AV,40.818923,-73.95253,30.0
2228,1,M11,803195,1,RIVERBANK/STATE PARK,40.826647,-73.955503,30.0
2229,1,M11,404031,2,RIVERSIDE DR/W 145 ST,40.827012,-73.952145,30.0
2230,1,M11,404017,3,RIVERSIDE DR/W 142 ST,40.825383,-73.953985,30.0
2231,1,M11,404018,4,RIVERSIDE DR/W 139 ST,40.823483,-73.955501,30.0
2232,1,M11,404019,5,W 135 ST/RIVERSIDE DR,40.820863,-73.957,30.0
2417,1,M4,400656,20,BROADWAY/W 155 ST,40.832512,-73.946226,30.0
2418,1,M4,400657,21,BROADWAY/W 152 ST,40.830668,-73.947579,30.0
2419,1,M4,400658,22,BROADWAY/W 150 ST,40.829398,-73.948497,30.0
2420,1,M4,400659,23,BROADWAY/W 147 ST,40.827513,-73.949879,30.0
2421,1,M4,403483,24,BROADWAY/W 145 ST,40.826693,-73.95048,30.0
2422,1,M4,400661,25,BROADWAY/W 142 ST,40.824316,-73.952208,30.0
2423,1,M4,400662,26,BROADWAY/W 140 ST,40.823073,-73.953123,30.0
2424,1,M4,400663,27,BROADWAY/W 138 ST,40.821841,-73.954028,30.0
2425,1,M4,803157,28,BROADWAY / W 135 ST,40.819972,-73.955401,30.0
2559,1,M101,402641,16,AMSTERDAM AV/W 152 ST,40.829745,-73.944372,30.0
2560,1,M101,402642,17,AMSTERDAM AV/W 150 ST,40.82806,-73.945613,30.0
2561,1,M101,402643,18,AMSTERDAM AV/W 148 ST,40.826908,-73.946446,30.0
2562,1,M101,402644,19,AMSTERDAM AV/W 145 ST,40.824949,-73.947888,30.0
2563,1,M101,402645,20,AMSTERDAM AV/W 143 ST,40.823629,-73.948866,30.0
2564,1,M101,402646,21,AMSTERDAM AV/W 140 ST,40.821716,-73.950244,30.0
2565,1,M101,402647,22,AMSTERDAM AV/W 138 ST,40.820487,-73.95113,30.0
2566,1,M101,405078,23,AMSTERDAM AV/W 135 ST,40.818605,-73.952522,30.0
106,0,M5,400618,52,BROADWAY/W 155 ST,40.832992,-73.945441,33.0
107,0,M5,400619,53,BROADWAY/W 157 ST,40.834257,-73.944519,33.0
108,0,M5,400620,54,BROADWAY/W 159 ST,40.835516,-73.9436,33.0
109,0,M5,400621,55,BROADWAY/W 161 ST,40.83674,-73.942702,33.0
110,0,M5,400622,56,BROADWAY/W 163 ST,40.838005,-73.941772,33.0
147,0,M5,400623,57,BROADWAY/W 165 ST,40.839363,-73.940785,33.0
148,0,M5,400624,58,BROADWAY/W 168 ST,40.840308,-73.94011,33.0
149,0,M5,400796,59,BROADWAY/W 171 ST,40.843509,-73.939006,33.0
150,0,M5,402535,60,BROADWAY/W 173 ST,40.844953,-73.938676,33.0
151,0,M5,400798,61,BROADWAY/W 175 ST,40.846487,-73.938292,33.0
152,0,M5,903231,62,W 178 ST/BROADWAY,40.848234,-73.937485,33.0
449,0,M2,400248,64,EDGECOMBE AV/W 155 ST,40.830904,-73.940279,33.0
450,0,M2,400249,65,EDGECOMBE AV/W 158 ST,40.832912,-73.939461,33.0
451,0,M2,400250,66,EDGECOMBE AV/W 160 ST,40.834045,-73.938133,33.0
452,0,M2,400251,67,EDGECOMBE AV/W 162 ST,40.835242,-73.937496,33.0
453,0,M2,400252,68,EDGECOMBE AV/W 164 ST,40.836657,-73.936852,33.0
454,0,M2,403907,69,W 165 ST/AMSTERDAM AV,40.837871,-73.938159,33.0
455,0,M2,403908,70,AUDUBON AV/W 165 ST,40.839052,-73.939318,33.0
456,0,M2,404876,71,W 168 ST/AUDUBON AV,40.840581,-73.938431,33.0
632,0,M3,402526,64,AMSTERDAM AV/W 155 ST,40.831683,-73.942827,33.0
633,0,M3,405073,65,AMSTERDAM AV/W 158 ST,40.833638,-73.941374,33.0
634,0,M3,404853,66,AMSTERDAM AV/W 161 ST,40.835239,-73.940199,33.0
635,0,M3,400414,67,ST NICHOLAS AV/W 163 ST,40.837027,-73.940079,33.0
636,0,M3,405111,68,ST NICHOLAS AV/W 165 ST,40.838389,-73.93981,33.0
637,0,M3,404066,69,ST NICHOLAS AV/W 167 ST,40.840879,-73.939441,33.0
638,0,M3,400418,70,ST NICHOLAS AV/W 170 ST,40.842529,-73.938555,33.0
639,0,M3,400419,71,ST NICHOLAS AV/W 173 ST,40.844406,-73.937188,33.0
640,0,M3,403975,72,ST NICHOLAS AV/W 176 ST,40.846368,-73.935747,33.0
1055,0,M4,400618,59,BROADWAY/W 155 ST,40.832992,-73.945441,33.0
1056,0,M4,400619,60,BROADWAY/W 157 ST,40.834257,-73.944519,33.0
1057,0,M4,400620,61,BROADWAY/W 159 ST,40.835516,-73.9436,33.0
1058,0,M4,400621,62,BROADWAY/W 161 ST,40.83674,-73.942702,33.0
1059,0,M4,400622,63,BROADWAY/W 163 ST,40.838005,-73.941772,33.0
1060,0,M4,404920,64,FT WASHINGTON AV/W 165 ST,40.840558,-73.942825,33.0
1061,0,M4,404921,65,FT WASHINGTON AV/W 168 ST,40.842408,-73.94209,33.0
1062,0,M4,400626,66,FT WASHINGTON AV/W 171 ST,40.844315,-73.940871,33.0
1063,0,M4,400627,67,FT WASHINGTON AV/W 173 ST,40.8457,-73.940298,33.0
1064,0,M4,400628,68,FT WASHINGTON AV/W 175 ST,40.846825,-73.939845,33.0
1065,0,M4,400629,69,FT WASHINGTON AV/W 177 ST,40.847906,-73.939407,33.0
1066,0,M4,400630,70,FT WASHINGTON AV/W 179 ST,40.849229,-73.938932,33.0
1145,0,M101,402526,65,AMSTERDAM AV/W 155 ST,40.831683,-73.942827,33.0
1146,0,M101,405073,66,AMSTERDAM AV/W 158 ST,40.833638,-73.941374,33.0
1147,0,M101,404853,67,AMSTERDAM AV/W 161 ST,40.835239,-73.940199,33.0
1200,0,M101,405075,68,AMSTERDAM AV/W 164 ST,40.837468,-73.938575,33.0
1201,0,M101,405076,69,AMSTERDAM AV/W 167 ST,40.839672,-73.93697,33.0
1202,0,M101,402740,70,AMSTERDAM AV/W 171 ST,40.841978,-73.935267,33.0
1203,0,M101,402741,71,AMSTERDAM AV/W 173 ST,40.84312,-73.934443,33.0
1204,0,M101,405077,72,AMSTERDAM AV/W 176 ST,40.84515,-73.932962,33.0
1451,1,M5,400655,10,BROADWAY/W 157 ST,40.834229,-73.944922,33.0
1490,1,M5,400808,1,BROADWAY/W 178 ST,40.848425,-73.937697,33.0
1491,1,M5,400809,2,BROADWAY/W 176 ST,40.846657,-73.938432,33.0
1492,1,M5,400810,3,BROADWAY/W 174 ST,40.845164,-73.938824,33.0
1493,1,M5,400811,4,BROADWAY/W 172 ST,40.843646,-73.939171,33.0
1494,1,M5,400812,5,BROADWAY/W 170 ST,40.842568,-73.939311,33.0
1495,1,M5,404918,6,BROADWAY/W 167 ST,40.840167,-73.940639,33.0
1496,1,M5,400814,7,BROADWAY/W 164 ST,40.838197,-73.942072,33.0
1497,1,M5,400815,8,BROADWAY/W 162 ST,40.836998,-73.942951,33.0
1498,1,M5,400816,9,BROADWAY/W 160 ST,40.835736,-73.943874,33.0
1820,1,M2,903049,1,168 ST/AUDUBON AV,40.840644,-73.938543,33.0
1821,1,M2,400258,2,BROADWAY/W 168 ST,40.841041,-73.939971,33.0
1822,1,M2,400259,3,W 166 ST/ST NICHOLAS AV,40.839624,-73.940184,33.0
1823,1,M2,403910,4,W 165 ST/AMSTERDAM AV,40.837687,-73.93804,33.0
1824,1,M2,400263,5,EDGECOMBE AV/W 164 ST,40.836219,-73.937231,33.0
1825,1,M2,400264,6,EDGECOMBE AV/W 162 ST,40.835011,-73.937775,33.0
1826,1,M2,400265,7,EDGECOMBE AV/W 160 ST,40.833653,-73.938817,33.0
1827,1,M2,400266,8,EDGECOMBE AV/W 158 ST,40.832421,-73.939905,33.0
1828,1,M2,400267,9,EDGECOMBE AV/W 155 ST,40.830618,-73.940438,33.0
1959,1,M3,400258,11,BROADWAY/W 168 ST,40.841041,-73.939971,33.0
1960,1,M3,400259,12,W 166 ST/ST NICHOLAS AV,40.839624,-73.940184,33.0
2000,1,M3,400454,8,ST NICHOLAS AV/W 178 ST,40.847482,-73.935168,33.0
2001,1,M3,403979,9,ST NICHOLAS AV/W 174 ST,40.844905,-73.937093,33.0
2002,1,M3,400457,10,ST NICHOLAS AV/W 172 ST,40.843215,-73.938316,33.0
2003,1,M3,400461,13,ST NICHOLAS AV/W 164 ST,40.837543,-73.940115,33.0
2004,1,M3,400462,14,ST NICHOLAS AV/W 162 ST,40.83629,-73.940039,33.0
2005,1,M3,404949,15,AMSTERDAM AV/W 161 ST,40.835536,-73.940181,33.0
2006,1,M3,402638,16,AMSTERDAM AV/W 158 ST,40.833351,-73.941776,33.0
2406,1,M4,400645,9,FT WASHINGTON AV/W 179 ST,40.849216,-73.939025,33.0
2407,1,M4,400646,10,FT WASHINGTON AV/W 177 ST,40.847583,-73.939718,33.0
2408,1,M4,400647,11,FT WASHINGTON AV/W 174 ST,40.845854,-73.94041,33.0
2409,1,M4,400648,12,FT WASHINGTON AV/W 172 ST,40.844435,-73.940982,33.0
2410,1,M4,400649,13,FT WASHINGTON AV/W 170 ST,40.843204,-73.941912,33.0
2411,1,M4,403373,14,FT WASHINGTON AV/W 168 ST,40.8419,-73.942467,33.0
2412,1,M4,403374,15,FT WASHINGTON AV/W 165 ST,40.839905,-73.943263,33.0
2413,1,M4,403375,16,FT WASHINGTON AV/W 164 ST,40.838725,-73.943731,33.0
2414,1,M4,403376,17,FT WASHINGTON AV/W 162 ST,40.837542,-73.944201,33.0
2415,1,M4,403377,18,FT WASHINGTON AV/W 160 ST,40.836093,-73.944759,33.0
2416,1,M4,400655,19,BROADWAY/W 157 ST,40.834229,-73.944922,33.0
2503,1,M101,404949,13,AMSTERDAM AV/W 161 ST,40.835536,-73.940181,33.0
2504,1,M101,402638,14,AMSTERDAM AV/W 158 ST,40.833351,-73.941776,33.0
2552,1,M101,402769,7,AMSTERDAM AV/W 178 ST,40.845883,-73.932601,33.0
2553,1,M101,405069,8,AMSTERDAM AV/W 175 ST,40.84381,-73.934076,33.0
2554,1,M101,402772,9,AMSTERDAM AV/W 172 ST,40.842043,-73.935378,33.0
2555,1,M101,402773,10,AMSTERDAM AV/W 170 ST,40.840658,-73.936399,33.0
2556,1,M101,402774,11,AMSTERDAM AV/W 168 ST,40.839549,-73.937226,33.0
2557,1,M101,405070,12,AMSTERDAM AV/W 165 ST,40.837603,-73.938646,33.0
2558,1,M101,402639,15,AMSTERDAM AV/W 156 ST,40.831932,-73.942813,33.0
2609,1,M98,400799,7,W 178 ST/BROADWAY,40.84803,-73.936989,33.0
2610,1,M98,404124,8,W 178 ST/ST NICHOLAS AV,40.847336,-73.935381,33.0
2611,1,M98,404125,9,W 178 ST/AUDUBON AV,40.84655,-73.933445,33.0
123,0,M5,400943,12,CENTRAL PK S/6 AV,40.766128,-73.977019,22.0
124,0,M5,401014,13,CENTRAL PK S/7 AV,40.767201,-73.979581,22.0
125,0,M5,401015,14,CENTRAL PK S/COLUMBUS CI,40.767838,-73.981242,22.0
335,0,M20,903209,36,Columbus Circle (does not stop),40.768164,-73.981327,22.0
336,0,M20,404871,37,CENTRAL PK W/COLUMBUS CIR,40.768686,-73.98134,22.0
337,0,M20,404049,38,CENTRAL PK W/W 63 ST,40.770657,-73.979873,22.0
792,0,M7,400943,18,CENTRAL PK S/6 AV,40.766128,-73.977019,22.0
793,0,M7,401014,19,CENTRAL PK S/7 AV,40.767201,-73.979581,22.0
794,0,M7,401015,20,CENTRAL PK S/COLUMBUS CI,40.767838,-73.981242,22.0
878,0,M10,903209,2,Columbus Circle (does not stop),40.768164,-73.981327,22.0
879,0,M10,404871,3,CENTRAL PK W/COLUMBUS CIR,40.768686,-73.98134,22.0
880,0,M10,404049,4,CENTRAL PK W/W 63 ST,40.770657,-73.979873,22.0
881,0,M10,401245,5,CENTRAL PK W/W 67 ST,40.772641,-73.978424,22.0
882,0,M10,403981,6,CENTRAL PK W/W 69 ST,40.77451,-73.97707,22.0
884,0,M10,401248,7,CENTRAL PK W/W 72 ST,40.776516,-73.975596,22.0
885,0,M10,404024,8,CENTRAL PK W/W 75 ST,40.778511,-73.97414,22.0
886,0,M10,401250,9,CENTRAL PK W/W 77 ST,40.779818,-73.97319,22.0
887,0,M10,404134,10,CENTRAL PK W/W 79 ST,40.781149,-73.972233,22.0
888,0,M10,401252,11,CENTRAL PK W/W 82 ST,40.782564,-73.971263,22.0
889,0,M10,401253,12,CENTRAL PK W/W 84 ST,40.784035,-73.970126,22.0
890,0,M10,401254,13,CENTRAL PK W/W 87 ST,40.78585,-73.96887,22.0
891,0,M10,401255,14,CENTRAL PK W/W 88 ST,40.786848,-73.968059,22.0
892,0,M10,401256,15,CENTRAL PK W/W 90 ST,40.788071,-73.967205,22.0
893,0,M10,401257,16,CENTRAL PK W/W 92 ST,40.789324,-73.966253,22.0
894,0,M10,401258,17,CENTRAL PK W/W 94 ST,40.790539,-73.965364,22.0
895,0,M10,401259,18,CENTRAL PK W/W 97 ST,40.792222,-73.964215,22.0
896,0,M10,401261,19,CENTRAL PK W/W 100 ST,40.794507,-73.962472,22.0
897,0,M10,401262,20,CENTRAL PK W/W 102 ST,40.79575,-73.961561,22.0
898,0,M10,401263,21,CENTRAL PK W/W 104 ST,40.797034,-73.960632,22.0
899,0,M10,401264,22,CENTRAL PK W/W 106 ST,40.798297,-73.959714,22.0
900,0,M10,401265,23,CENTRAL PK W/W 108 ST,40.799706,-73.958746,22.0
927,0,M104,903209,7,Columbus Circle (does not stop),40.768164,-73.981327,22.0
977,0,M79+,401869,6,E 79 ST TRANSVERSE/E 79 ST TRANSVERSE,40.778765,-73.968554,22.0
991,0,M86+,401900,6,W 86 ST/TRANSVERSE,40.784565,-73.967494,22.0
1420,1,M72,404122,9,5 AV/E  67 ST,40.769033,-73.969649,22.0
1427,1,M72,400124,7,5 AV/E 72 ST,40.771799,-73.967626,22.0
1428,1,M72,405491,8,5 AV/E 69 ST,40.770598,-73.968479,22.0
1429,1,M72,401245,10,CENTRAL PK W/W 67 ST,40.772641,-73.978424,22.0
1430,1,M72,403981,11,CENTRAL PK W/W 69 ST,40.77451,-73.97707,22.0
1815,1,M2,400124,47,5 AV/E 72 ST,40.771799,-73.967626,22.0
1816,1,M2,400109,33,5 AV/E 106 ST,40.794176,-73.951287,22.0
1817,1,M2,400110,34,5 AV/E 104 ST,40.793073,-73.952097,22.0
1818,1,M2,400111,35,5 AV/E 102 ST,40.79157,-73.953182,22.0
1819,1,M2,404081,36,5 AV/E 98 ST,40.789203,-73.954934,22.0
1848,1,M2,400290,29,CENTRAL PK N/ADAM C POWELL BL,40.799173,-73.95486,22.0
1849,1,M2,404278,30,CENTRAL PK N/MALCOLM X BL,40.798284,-73.952747,22.0
1850,1,M2,400107,31,5 AV/EAST 109 ST,40.796533,-73.94957,22.0
1851,1,M2,400108,32,5 AV/E 108 ST,40.795513,-73.950319,22.0
1852,1,M2,404168,37,5 AV/E 96 ST,40.788214,-73.955636,22.0
1853,1,M2,400115,38,5 AV/E 94 ST,40.786559,-73.956865,22.0
1854,1,M2,400116,39,5 AV/E 92 ST,40.785462,-73.95766,22.0
1855,1,M2,400117,40,5 AV/E 90 ST,40.783993,-73.958712,22.0
1856,1,M2,400118,41,5 AV/E 87 ST,40.782181,-73.960036,22.0
1857,1,M2,400119,42,5 AV/E 84 ST,40.780435,-73.961321,22.0
1858,1,M2,803162,43,5 AV/E 81 ST,40.778538,-73.96268,22.0
1859,1,M2,404303,44,5 AV/W 78 ST,40.776253,-73.964385,22.0
1860,1,M2,400122,45,5 AV/E 77 ST,40.77561,-73.964837,22.0
1861,1,M2,400123,46,5 AV/E 75 ST,40.774356,-73.965776,22.0
1862,1,M2,400125,48,5 AV/E 69 ST,40.770259,-73.968739,22.0
1863,1,M2,400126,49,5 AV/W 66 ST,40.768234,-73.970238,22.0
1864,1,M2,400127,50,5 AV/E 63 ST,40.767349,-73.970841,22.0
1865,1,M2,400128,51,5 AV/E 61 ST,40.766083,-73.971777,22.0
1866,1,M2,400512,52,5 AV/W 59 ST,40.764429,-73.972966,22.0
1895,1,M1,400124,33,5 AV/E 72 ST,40.771799,-73.967626,22.0
1896,1,M1,400109,20,5 AV/E 106 ST,40.794176,-73.951287,22.0
1897,1,M1,400110,21,5 AV/E 104 ST,40.793073,-73.952097,22.0
1898,1,M1,400111,22,5 AV/E 102 ST,40.79157,-73.953182,22.0
1899,1,M1,404081,23,5 AV/E 98 ST,40.789203,-73.954934,22.0
1900,1,M1,400107,18,5 AV/EAST 109 ST,40.796533,-73.94957,22.0
1901,1,M1,400108,19,5 AV/E 108 ST,40.795513,-73.950319,22.0
1902,1,M1,404168,24,5 AV/E 96 ST,40.788214,-73.955636,22.0
1903,1,M1,400115,25,5 AV/E 94 ST,40.786559,-73.956865,22.0
1904,1,M1,400116,26,5 AV/E 92 ST,40.785462,-73.95766,22.0
1905,1,M1,400117,27,5 AV/E 90 ST,40.783993,-73.958712,22.0
1906,1,M1,400118,28,5 AV/E 87 ST,40.782181,-73.960036,22.0
1907,1,M1,400119,29,5 AV/E 84 ST,40.780435,-73.961321,22.0
1908,1,M1,803162,30,5 AV/E 81 ST,40.778538,-73.96268,22.0
1909,1,M1,400122,31,5 AV/E 77 ST,40.77561,-73.964837,22.0
1910,1,M1,400123,32,5 AV/E 75 ST,40.774356,-73.965776,22.0
1911,1,M1,400125,34,5 AV/E 69 ST,40.770259,-73.968739,22.0
1912,1,M1,400126,35,5 AV/W 66 ST,40.768234,-73.970238,22.0
1913,1,M1,400127,36,5 AV/E 63 ST,40.767349,-73.970841,22.0
1914,1,M1,400128,37,5 AV/E 61 ST,40.766083,-73.971777,22.0
1915,1,M1,400512,38,5 AV/W 59 ST,40.764429,-73.972966,22.0
1954,1,M3,400124,54,5 AV/E 72 ST,40.771799,-73.967626,22.0
1955,1,M3,400109,41,5 AV/E 106 ST,40.794176,-73.951287,22.0
1956,1,M3,400110,42,5 AV/E 104 ST,40.793073,-73.952097,22.0
1957,1,M3,400111,43,5 AV/E 102 ST,40.79157,-73.953182,22.0
1958,1,M3,404081,44,5 AV/E 98 ST,40.789203,-73.954934,22.0
1961,1,M3,400290,37,CENTRAL PK N/ADAM C POWELL BL,40.799173,-73.95486,22.0
1962,1,M3,404278,38,CENTRAL PK N/MALCOLM X BL,40.798284,-73.952747,22.0
1963,1,M3,400108,40,5 AV/E 108 ST,40.795513,-73.950319,22.0
1964,1,M3,404168,45,5 AV/E 96 ST,40.788214,-73.955636,22.0
1965,1,M3,400115,46,5 AV/E 94 ST,40.786559,-73.956865,22.0
1966,1,M3,400116,47,5 AV/E 92 ST,40.785462,-73.95766,22.0
1967,1,M3,400117,48,5 AV/E 90 ST,40.783993,-73.958712,22.0
1968,1,M3,400118,49,5 AV/E 87 ST,40.782181,-73.960036,22.0
1969,1,M3,400119,50,5 AV/E 84 ST,40.780435,-73.961321,22.0
1970,1,M3,803162,51,5 AV/E 81 ST,40.778538,-73.96268,22.0
1971,1,M3,400122,52,5 AV/E 77 ST,40.77561,-73.964837,22.0
1972,1,M3,400123,53,5 AV/E 75 ST,40.774356,-73.965776,22.0
1973,1,M3,400125,55,5 AV/E 69 ST,40.770259,-73.968739,22.0
1974,1,M3,400126,56,5 AV/W 66 ST,40.768234,-73.970238,22.0
1975,1,M3,400127,57,5 AV/E 63 ST,40.767349,-73.970841,22.0
1976,1,M3,400128,58,5 AV/E 61 ST,40.766083,-73.971777,22.0
1977,1,M3,400512,59,5 AV/W 59 ST,40.764429,-73.972966,22.0
1990,1,M3,400486,36,110 ST/CENTRAL PK W,40.800357,-73.957727,22.0
1991,1,M3,400292,39,CENTRAL PK N/5 AV,40.796597,-73.949515,22.0
2334,1,M66,404122,7,5 AV/E  67 ST,40.769033,-73.969649,22.0
2346,1,M79+,401889,9,E 79 ST TRANSVERSE/E 79 ST TRANSVERSE,40.779084,-73.968749,22.0
2361,1,M86+,401926,10,W 86 ST/TRANSVERSE,40.781406,-73.96236,22.0
2369,1,M4,400124,59,5 AV/E 72 ST,40.771799,-73.967626,22.0
2372,1,M4,400109,46,5 AV/E 106 ST,40.794176,-73.951287,22.0
2373,1,M4,400110,47,5 AV/E 104 ST,40.793073,-73.952097,22.0
2374,1,M4,400111,48,5 AV/E 102 ST,40.79157,-73.953182,22.0
2375,1,M4,404081,49,5 AV/E 98 ST,40.789203,-73.954934,22.0
2382,1,M4,400290,42,CENTRAL PK N/ADAM C POWELL BL,40.799173,-73.95486,22.0
2383,1,M4,404278,43,CENTRAL PK N/MALCOLM X BL,40.798284,-73.952747,22.0
2384,1,M4,400108,45,5 AV/E 108 ST,40.795513,-73.950319,22.0
2385,1,M4,404168,50,5 AV/E 96 ST,40.788214,-73.955636,22.0
2386,1,M4,400115,51,5 AV/E 94 ST,40.786559,-73.956865,22.0
2387,1,M4,400116,52,5 AV/E 92 ST,40.785462,-73.95766,22.0
2388,1,M4,400117,53,5 AV/E 90 ST,40.783993,-73.958712,22.0
2389,1,M4,400118,54,5 AV/E 87 ST,40.782181,-73.960036,22.0
2390,1,M4,400119,55,5 AV/E 84 ST,40.780435,-73.961321,22.0
2391,1,M4,803162,56,5 AV/E 81 ST,40.778538,-73.96268,22.0
2392,1,M4,400122,57,5 AV/E 77 ST,40.77561,-73.964837,22.0
2393,1,M4,400123,58,5 AV/E 75 ST,40.774356,-73.965776,22.0
2394,1,M4,400125,60,5 AV/E 69 ST,40.770259,-73.968739,22.0
2395,1,M4,400126,61,5 AV/W 66 ST,40.768234,-73.970238,22.0
2396,1,M4,400127,62,5 AV/E 63 ST,40.767349,-73.970841,22.0
2397,1,M4,400128,63,5 AV/E 61 ST,40.766083,-73.971777,22.0
2398,1,M4,400512,64,5 AV/W 59 ST,40.764429,-73.972966,22.0
2404,1,M4,400486,41,110 ST/CENTRAL PK W,40.800357,-73.957727,22.0
2405,1,M4,400292,44,CENTRAL PK N/5 AV,40.796597,-73.949515,22.0
2580,1,M106,400109,8,5 AV/E 106 ST,40.794176,-73.951287,22.0
2581,1,M106,400110,9,5 AV/E 104 ST,40.793073,-73.952097,22.0
2582,1,M106,400111,10,5 AV/E 102 ST,40.79157,-73.953182,22.0
2583,1,M106,404081,11,5 AV/E 98 ST,40.789203,-73.954934,22.0
132,0,M5,400760,26,RIVERSIDE DR/W 87 ST,40.790737,-73.979671,24.0
133,0,M5,400761,27,RIVERSIDE DR/W 89 ST,40.791852,-73.978234,24.0
134,0,M5,400762,28,RIVERSIDE DR/W 91 ST,40.792603,-73.977074,24.0
135,0,M5,404054,29,RIVERSIDE DR/W 94 ST,40.794693,-73.976593,24.0
136,0,M5,400764,30,RIVERSIDE DR/W 97 ST,40.79649,-73.974307,24.0
137,0,M5,403902,31,RIVERSIDE DR/W 100 ST,40.798851,-73.973449,24.0
138,0,M5,404104,32,RIVERSIDE DR/W 103 ST,40.800432,-73.971727,24.0
139,0,M5,400768,33,RIVERSIDE DR/W 106 ST,40.802241,-73.970219,24.0
140,0,M5,400769,34,RIVERSIDE DR/W 108 ST,40.803674,-73.969149,24.0
777,0,M7,401027,31,AMSTERDAM AV/W 86 ST,40.787953,-73.974696,24.0
778,0,M7,404320,32,AMSTERDAM AV/W 89 ST,40.78949,-73.973569,24.0
779,0,M7,401029,33,AMSTERDAM AV/W 91 ST,40.791085,-73.972405,24.0
780,0,M7,401030,34,AMSTERDAM AV/W 93 ST,40.792344,-73.97148,24.0
781,0,M7,401031,35,AMSTERDAM AV/W 96 ST,40.794323,-73.970039,24.0
782,0,M7,401032,36,AMSTERDAM AV/W 98 ST,40.795601,-73.969106,24.0
783,0,M7,401033,37,AMSTERDAM AV/W 100 ST,40.796869,-73.968181,24.0
784,0,M7,401034,38,AMSTERDAM AV/W 102 ST,40.798005,-73.967398,24.0
785,0,M7,401035,39,AMSTERDAM AV/W 104 ST,40.799391,-73.966341,24.0
795,0,M7,401036,40,W 106 ST/AMSTERDAM AV,40.800184,-73.965359,24.0
796,0,M7,401037,41,W 106 ST/COLUMBUS AV,40.798989,-73.962527,24.0
797,0,M7,401038,42,MANHATTAN AV/W 106 ST,40.798937,-73.96118,24.0
798,0,M7,401039,43,MANHATTAN AV/W 109 ST,40.800471,-73.960056,24.0
851,0,M11,401027,33,AMSTERDAM AV/W 86 ST,40.787953,-73.974696,24.0
852,0,M11,404320,34,AMSTERDAM AV/W 89 ST,40.78949,-73.973569,24.0
853,0,M11,401029,35,AMSTERDAM AV/W 91 ST,40.791085,-73.972405,24.0
854,0,M11,401030,36,AMSTERDAM AV/W 93 ST,40.792344,-73.97148,24.0
855,0,M11,401031,37,AMSTERDAM AV/W 96 ST,40.794323,-73.970039,24.0
856,0,M11,401032,38,AMSTERDAM AV/W 98 ST,40.795601,-73.969106,24.0
857,0,M11,401033,39,AMSTERDAM AV/W 100 ST,40.796869,-73.968181,24.0
858,0,M11,401034,40,AMSTERDAM AV/W 102 ST,40.798005,-73.967398,24.0
859,0,M11,401035,41,AMSTERDAM AV/W 104 ST,40.799391,-73.966341,24.0
860,0,M11,401435,42,AMSTERDAM AV/W 106 ST,40.800697,-73.965394,24.0
861,0,M11,401436,43,AMSTERDAM AV/W 109 ST,40.802566,-73.964024,24.0
945,0,M104,403109,18,BROADWAY/W 86 ST,40.788533,-73.976086,24.0
946,0,M104,403110,19,BROADWAY/W 88 ST,40.789801,-73.975114,24.0
947,0,M104,403111,20,BROADWAY/W 91 ST,40.791669,-73.973745,24.0
948,0,M104,403112,21,BROADWAY/W 93 ST,40.792967,-73.972806,24.0
949,0,M104,405248,22,BROADWAY/W 97 ST,40.795174,-73.971197,24.0
950,0,M104,403114,23,BROADWAY/W 99 ST,40.796724,-73.970048,24.0
951,0,M104,403115,24,BROADWAY/W 101 ST,40.798143,-73.968924,24.0
952,0,M104,403116,25,BROADWAY/W 103 ST,40.79932,-73.968241,24.0
953,0,M104,405394,26,BROADWAY/WEST 105 ST,40.801659,-73.967648,24.0
954,0,M104,403118,27,BROADWAY/W 108 ST,40.803132,-73.967242,24.0
1114,0,M60+,403117,1,BROADWAY/W 106 ST,40.801818,-73.967642,24.0
1212,0,M106,401933,1,W 96 ST/WEST END AV,40.794933,-73.972689,24.0
1213,0,M106,401934,2,W 96 ST/BROADWAY,40.794392,-73.971407,24.0
1214,0,M106,401935,3,W 96 ST/AMSTERDAM AV,40.793798,-73.970006,24.0
1215,0,M106,401936,4,W 96 ST/COLUMBUS AV,40.792604,-73.967161,24.0
1216,0,M106,401937,5,W 96 ST/CENTRAL PK W,40.791667,-73.964944,24.0
1228,0,M96,401933,1,W 96 ST/WEST END AV,40.794933,-73.972689,24.0
1229,0,M96,401934,2,W 96 ST/BROADWAY,40.794392,-73.971407,24.0
1230,0,M96,401935,3,W 96 ST/AMSTERDAM AV,40.793798,-73.970006,24.0
1231,0,M96,401936,4,W 96 ST/COLUMBUS AV,40.792604,-73.967161,24.0
1232,0,M96,401937,5,W 96 ST/CENTRAL PK W,40.791667,-73.964944,24.0
1319,0,M116,404911,1,W 106 ST/BROADWAY,40.801154,-73.967576,24.0
1320,0,M116,401036,2,W 106 ST/AMSTERDAM AV,40.800184,-73.965359,24.0
1321,0,M116,401037,3,W 106 ST/COLUMBUS AV,40.798989,-73.962527,24.0
1322,0,M116,401038,4,MANHATTAN AV/W 106 ST,40.798937,-73.96118,24.0
1323,0,M116,401039,5,MANHATTAN AV/W 109 ST,40.800471,-73.960056,24.0
1472,1,M5,400837,27,RIVERSIDE DR/W 108 ST,40.803581,-73.969521,24.0
1473,1,M5,400838,28,RIVERSIDE DR/W 106 ST,40.802324,-73.970472,24.0
1474,1,M5,404130,29,RIVERSIDE DR/W 104 ST,40.800944,-73.971339,24.0
1475,1,M5,400840,30,RIVERSIDE DR/W 100 ST,40.798412,-73.973916,24.0
1476,1,M5,400841,31,RIVERSIDE DR/W 97 ST,40.796511,-73.974404,24.0
1477,1,M5,404131,32,RIVERSIDE DR/W 94 ST,40.794923,-73.976564,24.0
1478,1,M5,400843,33,RIVERSIDE DR/W 91 ST,40.792862,-73.977067,24.0
1479,1,M5,404855,34,RIVERSIDE DR/W 89 ST,40.791724,-73.978862,24.0
1989,1,M3,400485,35,CATHEDRAL PKY/MANHATTAN AV,40.801047,-73.959575,24.0
2143,1,M7,401086,22,COLUMBUS AV/W 106 ST,40.798915,-73.963235,24.0
2144,1,M7,401087,23,COLUMBUS AV/W 102 ST,40.797415,-73.96432,24.0
2145,1,M7,401088,24,COLUMBUS AV/W 100 ST,40.795065,-73.966047,24.0
2146,1,M7,403362,25,COLUMBUS AV/W 97 ST,40.793273,-73.967359,24.0
2147,1,M7,401090,26,COLUMBUS AV/W 94 ST,40.791289,-73.96879,24.0
2148,1,M7,401091,27,COLUMBUS AV/W 92 ST,40.790024,-73.969719,24.0
2149,1,M7,401092,28,COLUMBUS AV/W 89 ST,40.788158,-73.971085,24.0
2160,1,M7,403392,19,MANHATTAN AV/CATHEDRAL PY,40.800882,-73.95994,24.0
2161,1,M7,401084,20,MANHATTAN AV/W 108 ST,40.799754,-73.960764,24.0
2162,1,M7,401085,21,MANHATTAN AV/W 106 ST,40.798802,-73.961459,24.0
2183,1,M11,400677,17,CATHEDRAL PKY/AMSTERDAM AV,40.802722,-73.963511,24.0
2194,1,M11,401469,18,COLUMBUS AV/CATHEDRAL PY,40.801443,-73.961388,24.0
2195,1,M11,401470,19,COLUMBUS AV/W 108 ST,40.800309,-73.962213,24.0
2196,1,M11,401086,20,COLUMBUS AV/W 106 ST,40.798915,-73.963235,24.0
2197,1,M11,401087,21,COLUMBUS AV/W 102 ST,40.797415,-73.96432,24.0
2198,1,M11,401088,22,COLUMBUS AV/W 100 ST,40.795065,-73.966047,24.0
2199,1,M11,403362,23,COLUMBUS AV/W 97 ST,40.793273,-73.967359,24.0
2200,1,M11,401090,24,COLUMBUS AV/W 94 ST,40.791289,-73.96879,24.0
2201,1,M11,401091,25,COLUMBUS AV/W 92 ST,40.790024,-73.969719,24.0
2202,1,M11,401092,26,COLUMBUS AV/W 89 ST,40.788158,-73.971085,24.0
2239,1,M10,401331,28,CENTRAL PK W/W 97 ST,40.792268,-73.964384,24.0
2262,1,M10,401326,23,CENTRAL PK W/W 108 ST,40.799136,-73.959367,24.0
2263,1,M10,401327,24,CENTRAL PK W/W 106 ST,40.798131,-73.960068,24.0
2264,1,M10,401328,25,CENTRAL PK W/W 104 ST,40.79651,-73.961272,24.0
2265,1,M10,401329,26,CENTRAL PK W/W 102 ST,40.795276,-73.96219,24.0
2266,1,M10,401330,27,CENTRAL PK W/W 100 ST,40.79395,-73.963152,24.0
2267,1,M10,401333,29,CENTRAL PK W/W 94 ST,40.790108,-73.965963,24.0
2268,1,M10,401334,30,CENTRAL PK W/W 92 ST,40.788893,-73.966852,24.0
2269,1,M10,401335,31,CENTRAL PK W/W 90 ST,40.787619,-73.96777,24.0
2270,1,M10,401336,32,CENTRAL PK W/W 88 ST,40.786527,-73.968515,24.0
2300,1,M104,403150,12,BROADWAY/CATHEDRAL PY,40.804085,-73.967018,24.0
2301,1,M104,403151,13,BROADWAY/W 108 ST,40.803163,-73.967726,24.0
2302,1,M104,403152,14,BROADWAY/W 106 ST,40.800986,-73.96811,24.0
2303,1,M104,403153,15,BROADWAY/W 104 ST,40.799738,-73.968497,24.0
2304,1,M104,403154,16,BROADWAY/W 102 ST,40.798434,-73.969289,24.0
2305,1,M104,403155,17,BROADWAY/W 100 ST,40.79718,-73.970232,24.0
2306,1,M104,405249,18,BROADWAY/W 97 ST,40.794932,-73.971848,24.0
2307,1,M104,403158,19,BROADWAY/W 94 ST,40.793162,-73.973094,24.0
2308,1,M104,403159,20,BROADWAY/W 92 ST,40.791906,-73.974012,24.0
2309,1,M104,405541,21,BROADWAY/W 89 ST,40.790087,-73.975267,24.0
2362,1,M86+,401927,11,W 86 ST/CENTRAL PK W,40.7857,-73.970102,24.0
2363,1,M86+,404308,12,W 86 ST/COLUMBUS AV,40.786707,-73.972454,24.0
2364,1,M86+,401929,13,W 86 ST/AMSTERDAM AV,40.787698,-73.974816,24.0
2365,1,M86+,803166,14,W 86 ST/BROADWAY,40.788263,-73.976297,24.0
2366,1,M86+,403518,15,W 87 ST/WEST END AV,40.789549,-73.977198,24.0
2403,1,M4,400485,40,CATHEDRAL PKY/MANHATTAN AV,40.801047,-73.959575,24.0
2432,1,M4,400676,37,CATHEDRAL PY/BROADWAY,40.803862,-73.966205,24.0
2433,1,M4,400677,38,CATHEDRAL PKY/AMSTERDAM AV,40.802722,-73.963511,24.0
2434,1,M4,400678,39,CATHEDRAL PY/COLUMBUS AV,40.801508,-73.960792,24.0
2492,1,M60+,402018,21,W 106 ST/BROADWAY,40.801424,-73.968241,24.0
2584,1,M106,401331,12,CENTRAL PK W/W 97 ST,40.792268,-73.964384,24.0
2585,1,M106,404075,13,W 96 ST/COLUMBUS AV,40.793081,-73.967825,24.0
2586,1,M106,401964,14,W 96 ST/AMSTERDAM AV,40.794037,-73.970096,24.0
2587,1,M106,401965,15,W 96 ST/BROADWAY,40.7946,-73.971451,24.0
2588,1,M106,401966,16,W 97 ST/WEST END AV,40.795852,-73.972403,24.0
2589,1,M106,903004,17,W 96 ST/WEST END AV,40.795103,-73.97309,24.0
2590,1,M96,401331,8,CENTRAL PK W/W 97 ST,40.792268,-73.964384,24.0
2591,1,M96,404075,9,W 96 ST/COLUMBUS AV,40.793081,-73.967825,24.0
2592,1,M96,401964,10,W 96 ST/AMSTERDAM AV,40.794037,-73.970096,24.0
2593,1,M96,401965,11,W 96 ST/BROADWAY,40.7946,-73.971451,24.0
2594,1,M96,401966,12,W 97 ST/WEST END AV,40.795852,-73.972403,24.0
2595,1,M96,903004,13,W 96 ST/WEST END AV,40.795103,-73.97309,24.0
2695,1,M116,403392,17,MANHATTAN AV/CATHEDRAL PY,40.800882,-73.95994,24.0
2696,1,M116,401084,18,MANHATTAN AV/W 108 ST,40.799754,-73.960764,24.0
2697,1,M116,401085,19,MANHATTAN AV/W 106 ST,40.798802,-73.961459,24.0
2698,1,M116,402016,20,W 106 ST/COLUMBUS AV,40.799239,-73.962661,24.0
2699,1,M116,402017,21,W 106 ST/AMSTERDAM AV,40.800678,-73.966059,24.0
2700,1,M116,401977,22,W 106 ST/BROADWAY,40.801329,-73.967601,24.0
141,0,M5,400599,35,RIVERSIDE DR/W 112 ST,40.806297,-73.967664,26.0
142,0,M5,400771,36,RIVERSIDE DR/W 114 ST,40.807864,-73.966626,26.0
143,0,M5,400772,37,RIVERSIDE DR/W 116 ST,40.809122,-73.965499,26.0
144,0,M5,400602,38,RIVERSIDE DR/W 119 ST,40.810907,-73.964175,26.0
145,0,M5,404258,39,RIVERSIDE DR/W 122 ST,40.812935,-73.9627,26.0
146,0,M5,404821,40,RIVERSIDE DR/TIEMANN PL,40.816069,-73.961163,26.0
820,0,M11,401442,48,AMSTERDAM AV/W 120 ST,40.809585,-73.958906,26.0
821,0,M11,403292,50,AMSTERDAM AV/LA SALLE ST,40.812755,-73.956592,26.0
862,0,M11,401438,44,AMSTERDAM AV/W 112 ST,40.804556,-73.962579,26.0
863,0,M11,403886,45,AMSTERDAM AV/W 114 ST,40.805727,-73.961715,26.0
864,0,M11,401440,46,AMSTERDAM AV/W 116 ST,40.807099,-73.960724,26.0
865,0,M11,401441,47,AMSTERDAM AV/W 118 ST,40.808353,-73.959809,26.0
866,0,M11,401443,49,AMSTERDAM AV/W 123 ST,40.812268,-73.956884,26.0
867,0,M11,401444,51,AMSTERDAM AV/W 125 ST,40.813745,-73.955868,26.0
868,0,M11,401446,52,AMSTERDAM AV/W 129 ST,40.814996,-73.955014,26.0
869,0,M11,401447,53,AMSTERDAM AV/W 131 ST,40.816685,-73.953761,26.0
928,0,M104,403122,30,BROADWAY/W 116 ST,40.80799,-73.963751,26.0
929,0,M104,404262,31,BROADWAY/W 120 ST,40.810341,-73.961983,26.0
930,0,M104,404260,29,BROADWAY/W 113 ST,40.806258,-73.964954,26.0
931,0,M104,403125,32,BROADWAY/W 122 ST,40.812034,-73.960739,26.0
932,0,M104,403126,33,BROADWAY/LA SALLE ST,40.813972,-73.959307,26.0
933,0,M104,403127,34,BROADWAY/TIEMANN PL,40.814923,-73.95853,26.0
955,0,M104,403119,28,BROADWAY/CATHEDRAL PKY,40.804269,-73.96635,26.0
956,0,M104,401445,35,AMSTERDAM AV/W 126 ST,40.81434,-73.955492,26.0
957,0,M104,903089,36,AMSTERDAM AV/W 129 ST,40.814906,-73.955044,26.0
1003,0,M4,403122,42,BROADWAY/W 116 ST,40.80799,-73.963751,26.0
1004,0,M4,404262,43,BROADWAY/W 120 ST,40.810341,-73.961983,26.0
1067,0,M4,400595,37,CATHEDRAL PY/MANHATTAN AV,40.801417,-73.959954,26.0
1068,0,M4,400596,38,CATHEDRAL PY/MORNINGSIDE DR,40.802016,-73.961395,26.0
1069,0,M4,400597,39,CATHEDRAL PY/AMSTERDAM AV,40.803219,-73.964208,26.0
1070,0,M4,400598,40,CATHEDRAL PY/BROADWAY,40.804142,-73.966436,26.0
1071,0,M4,404260,41,BROADWAY/W 113 ST,40.806258,-73.964954,26.0
1072,0,M4,403125,44,BROADWAY/W 122 ST,40.812034,-73.960739,26.0
1073,0,M4,403126,45,BROADWAY/LA SALLE ST,40.813972,-73.959307,26.0
1074,0,M4,403127,46,BROADWAY/TIEMANN PL,40.814923,-73.95853,26.0
1075,0,M4,404232,47,BROADWAY/W 131 ST,40.817322,-73.956852,26.0
1076,0,M4,403461,48,BROADWAY/W 133 ST,40.818494,-73.955937,26.0
1115,0,M60+,403122,2,BROADWAY/W 116 ST,40.80799,-73.963751,26.0
1116,0,M60+,404262,3,BROADWAY/W 120 ST,40.810341,-73.961983,26.0
1117,0,M60+,401442,4,AMSTERDAM AV/W 120 ST,40.809585,-73.958906,26.0
1118,0,M60+,403292,5,AMSTERDAM AV/LA SALLE ST,40.812755,-73.956592,26.0
1148,0,M101,401445,54,AMSTERDAM AV/W 126 ST,40.81434,-73.955492,26.0
1149,0,M101,401446,55,AMSTERDAM AV/W 129 ST,40.814996,-73.955014,26.0
1150,0,M101,401447,56,AMSTERDAM AV/W 131 ST,40.816685,-73.953761,26.0
1190,0,M101,402510,52,W 125 ST/ST NICHOLAS AV,40.811005,-73.953007,26.0
1191,0,M101,402512,53,W 125 ST/AMSTERDAM AV,40.813269,-73.956121,26.0
1192,0,M101,401448,57,AMSTERDAM AV/W 133 ST,40.81785,-73.952922,26.0
1193,0,M101,402517,58,AMSTERDAM AV/W 135 ST,40.819316,-73.95184,26.0
1194,0,M101,402518,59,AMSTERDAM AV/W 138 ST,40.821041,-73.950578,26.0
1195,0,M101,402519,60,AMSTERDAM AV/W 140 ST,40.822402,-73.949594,26.0
1466,1,M5,404822,21,RIVERSIDE DR/TIEMANN PL,40.816305,-73.961905,26.0
1467,1,M5,404259,22,RIVERSIDE DR/W 122 ST,40.812237,-73.963936,26.0
1468,1,M5,400832,23,RIVERSIDE DR/W 119 ST,40.810963,-73.964375,26.0
1469,1,M5,400834,24,RIVERSIDE DR/W 116 ST,40.808776,-73.966007,26.0
1470,1,M5,400835,25,RIVERSIDE DR/W 114 ST,40.807536,-73.967154,26.0
1471,1,M5,400836,26,RIVERSIDE DR/W 112 ST,40.806236,-73.967951,26.0
1983,1,M3,400477,29,ST NICHOLAS AV/W 125 ST,40.810492,-73.952926,26.0
1988,1,M3,400484,34,MANHATTAN AV/W 112 ST,40.802216,-73.958968,26.0
2013,1,M3,400471,23,ST NICHOLAS AV/W 141 ST,40.821042,-73.946307,26.0
2014,1,M3,400472,24,ST NICHOLAS AV/W 138 ST,40.818937,-73.947284,26.0
2015,1,M3,400473,25,ST NICHOLAS AV/W 135 ST,40.817178,-73.948099,26.0
2016,1,M3,400474,26,ST NICHOLAS AV/W 133 ST,40.81537,-73.948945,26.0
2017,1,M3,400475,27,ST NICHOLAS AV/W 130 ST,40.813469,-73.950237,26.0
2018,1,M3,400476,28,ST NICHOLAS AV/W 128 ST,40.812807,-73.950848,26.0
2141,1,M7,400484,18,MANHATTAN AV/W 112 ST,40.802216,-73.958968,26.0
2182,1,M11,405079,10,AMSTERDAM AV/W 125 ST,40.812905,-73.956867,26.0
2186,1,M11,401458,8,AMSTERDAM AV/W 131 ST,40.816009,-73.954424,26.0
2187,1,M11,401459,9,AMSTERDAM AV/W 129 ST,40.814859,-73.95525,26.0
2188,1,M11,401462,11,AMSTERDAM AV/W 123 ST,40.811034,-73.958114,26.0
2189,1,M11,401463,12,AMSTERDAM AV/W 120 ST,40.809048,-73.959563,26.0
2190,1,M11,401464,13,AMSTERDAM AV/W 118 ST,40.807818,-73.960464,26.0
2191,1,M11,401465,14,AMSTERDAM AV/W 116 ST,40.806523,-73.961403,26.0
2192,1,M11,401466,15,AMSTERDAM AV/W 114 ST,40.805286,-73.962307,26.0
2193,1,M11,401467,16,AMSTERDAM AV/W 112 ST,40.804034,-73.963215,26.0
2289,1,M104,403147,9,BROADWAY/W 116 ST,40.807957,-73.96422,26.0
2290,1,M104,403142,5,BROADWAY/TIEMANN PL,40.815025,-73.959043,26.0
2291,1,M104,403145,7,BROADWAY/W 122 ST,40.811738,-73.961462,26.0
2292,1,M104,403148,10,BROADWAY/W 114 ST,40.806645,-73.965164,26.0
2293,1,M104,403149,11,BROADWAY/W 112 ST,40.805377,-73.966071,26.0
2294,1,M104,403942,1,CONVENT AV/W 129 ST,40.814223,-73.953176,26.0
2295,1,M104,403139,2,MORNINGSIDE AV/W 125 ST,40.811475,-73.95402,26.0
2296,1,M104,403604,3,W 125 ST/AMSTERDAM AV,40.813693,-73.956392,26.0
2297,1,M104,403763,4,W 125 ST/OLD BROADWAY,40.815072,-73.957587,26.0
2298,1,M104,403144,6,BROADWAY/LA SALLE ST,40.813736,-73.959961,26.0
2299,1,M104,403454,8,BROADWAY/W 119 ST,40.809721,-73.962868,26.0
2370,1,M4,405234,33,BROADWAY/WEST 120 ST,40.810369,-73.962559,26.0
2371,1,M4,403147,34,BROADWAY/W 116 ST,40.807957,-73.96422,26.0
2426,1,M4,903230,29,BROADWAY/W 133 ST,40.818441,-73.956514,26.0
2427,1,M4,403903,30,BROADWAY/W 129 ST,40.81617,-73.958183,26.0
2428,1,M4,403142,31,BROADWAY/TIEMANN PL,40.815025,-73.959043,26.0
2429,1,M4,403145,32,BROADWAY/W 122 ST,40.811738,-73.961462,26.0
2430,1,M4,403148,35,BROADWAY/W 114 ST,40.806645,-73.965164,26.0
2431,1,M4,403149,36,BROADWAY/W 112 ST,40.805377,-73.966071,26.0
2488,1,M60+,405079,17,AMSTERDAM AV/W 125 ST,40.812905,-73.956867,26.0
2489,1,M60+,803161,18,AMSTERDAM AV/W 120 ST,40.809531,-73.959187,26.0
2490,1,M60+,405234,19,BROADWAY/WEST 120 ST,40.810369,-73.962559,26.0
2491,1,M60+,403147,20,BROADWAY/W 116 ST,40.807957,-73.96422,26.0
2505,1,M101,401458,24,AMSTERDAM AV/W 131 ST,40.816009,-73.954424,26.0
2506,1,M101,401459,25,AMSTERDAM AV/W 129 ST,40.814859,-73.95525,26.0
2567,1,M101,402653,26,W 125 ST/AMSTERDAM AV,40.812602,-73.955693,26.0
2568,1,M101,402723,27,W 125 ST/MORNINGSIDE AV,40.811402,-73.954184,26.0
2681,1,M116,400484,16,MANHATTAN AV/W 112 ST,40.802216,-73.958968,26.0
154,0,M15+,401727,19,1 AV/E 116 ST,40.796323,-73.935122,25.0
172,0,M15+,401731,20,1 AV/E 125 ST,40.801611,-73.931268,25.0
173,0,M15+,803054,21,E 126 ST/2 AV,40.80315,-73.932264,25.0
180,0,M15,401727,56,1 AV/E 116 ST,40.796323,-73.935122,25.0
181,0,M15,401729,57,1 AV/E 120 ST,40.798936,-73.933223,25.0
182,0,M15,401730,58,1 AV/PALADINO AV,40.80036,-73.932182,25.0
195,0,M15,401731,59,1 AV/E 125 ST,40.801611,-73.931268,25.0
196,0,M15,803054,60,E 126 ST/2 AV,40.80315,-73.932264,25.0
552,0,M1,400050,49,MADISON AV/E 116 ST,40.800405,-73.944495,25.0
553,0,M1,400051,50,MADISON AV/E 118 ST,40.801507,-73.943618,25.0
554,0,M1,403980,51,MADISON AV/E 121 ST,40.803482,-73.942225,25.0
555,0,M1,400053,52,MADISON AV/E 123 ST,40.804777,-73.941328,25.0
556,0,M1,400054,53,MADISON AV/E 125 ST,40.806015,-73.940348,25.0
557,0,M1,400055,54,MADISON AV/E 127 ST,40.807247,-73.939459,25.0
558,0,M1,400056,55,MADISON AV/E 129 ST,40.808511,-73.938536,25.0
559,0,M1,400057,56,MADISON AV/E 132 ST,40.810426,-73.937108,25.0
560,0,M1,403711,57,E 135 ST/MADISON AV,40.812302,-73.936529,25.0
561,0,M1,400059,58,5 AV/E 135 ST,40.813125,-73.937224,25.0
562,0,M1,400060,59,5 AV/E 138 ST,40.814463,-73.936251,25.0
706,0,M103,405181,50,3 AV/E 116 ST,40.797798,-73.94004,25.0
750,0,M103,402707,51,3 AV/E 118 ST,40.799578,-73.938718,25.0
751,0,M103,403438,52,3 AV/E 122 ST,40.802025,-73.936967,25.0
752,0,M103,903042,53,3 AV /E 125 ST,40.804205,-73.935368,25.0
753,0,M103,803153,54,E 126 ST/2 AV,40.803873,-73.93388,25.0
1121,0,M60+,402661,8,E 125 ST/MADISON AV,40.805533,-73.940296,25.0
1122,0,M60+,403671,9,E 125 ST/LEXINGTON AV,40.804178,-73.937065,25.0
1123,0,M60+,403673,10,E 125 ST/2 AV,40.802793,-73.933781,25.0
1124,0,M60+,803215,11,triboro br/ramp,40.796418,-73.921784,25.0
1134,0,M101,402503,45,E 125 ST/LEXINGTON AV,40.804584,-73.937761,25.0
1135,0,M101,402504,46,E 125 ST/PARK AV,40.805301,-73.939475,25.0
1144,0,M101,405181,41,3 AV/E 116 ST,40.797798,-73.94004,25.0
1184,0,M101,402707,42,3 AV/E 118 ST,40.799578,-73.938718,25.0
1185,0,M101,403438,43,3 AV/E 122 ST,40.802025,-73.936967,25.0
1186,0,M101,402502,44,E 125 ST/3 AV,40.803935,-73.936221,25.0
1187,0,M101,402505,47,E 125 ST/MADISON AV,40.805979,-73.940999,25.0
1245,0,M98,405181,7,3 AV/E 116 ST,40.797798,-73.94004,25.0
1246,0,M98,403537,8,3 AV/E 125 ST,40.80389,-73.935524,25.0
1263,0,M102,402003,42,E 116 ST/LEXINGTON AV,40.798601,-73.941471,25.0
1264,0,M102,402004,43,E 116 ST/PARK AV,40.799171,-73.942827,25.0
1265,0,M102,402005,44,E 116 ST/MADISON AV,40.800172,-73.94517,25.0
1266,0,M102,402006,45,E 116 ST/5 AV,40.800626,-73.946224,25.0
1314,0,M102,405135,41,E 116 ST/3 AV,40.798172,-73.940408,25.0
1329,0,M116,401990,13,E 116 ST/MADISON AV,40.799718,-73.944398,25.0
1330,0,M116,401992,14,E 116 ST/LEXINGTON AV,40.798605,-73.941821,25.0
1331,0,M116,401993,15,E 116 ST/3 AV,40.797712,-73.939691,25.0
1332,0,M116,401994,16,E 116 ST/2 AV,40.796991,-73.937987,25.0
1333,0,M116,401727,17,1 AV/E 116 ST,40.796323,-73.935122,25.0
1334,0,M116,401729,18,1 AV/E 120 ST,40.798936,-73.933223,25.0
1335,0,M116,401730,19,1 AV/PALADINO AV,40.80036,-73.932182,25.0
1336,0,M116,803059,20,PLEASANT AV/E 120 ST,40.797614,-73.93101,25.0
1337,0,M35,402458,1,LEXINGTON AV/E 125 ST,40.80458,-73.937417,25.0
1338,0,M35,402460,2,E 124 ST/3 AV,40.803051,-73.936515,25.0
1339,0,M35,402461,3,E 124 ST/2 AV,40.802148,-73.934477,25.0
1340,0,M35,404352,4,MAIN RDY/AFTER EXIT RAMP,40.796137,-73.919511,25.0
1341,0,M35,405140,5,MAIN RDY/OPP GOLF CTR PARKING,40.794984,-73.921694,25.0
1342,0,M35,404353,6,MAIN RDY/ICAHN STADIUM,40.792872,-73.92339,25.0
1343,0,M35,803238,7,RIVERS EDGE RD/MAN PSYCH CTR ENT,40.790347,-73.928631,25.0
1344,0,M35,803239,8,MAIN ROADWAY/RIVERS EDGE RD,40.789129,-73.926861,25.0
1345,0,M35,404355,9,MAIN RDY/OPP CLARKE THOMAS BLDG,40.78641,-73.929197,25.0
1346,0,M35,404356,10,SUNKEN GARDEN LOOP/EMPLOYMENT CTR,40.786171,-73.931819,25.0
1347,0,M35,803034,11,SUNKEN GARDEN LOOP/Charles Gay CTR,40.785095,-73.930841,25.0
1499,1,M15+,401732,1,E 126 ST/2 AV,40.80323,-73.932451,25.0
1500,1,M15+,401738,2,2 AV/E 125 ST,40.802473,-73.933855,25.0
1523,1,M15,401732,1,E 126 ST/2 AV,40.80323,-73.932451,25.0
1524,1,M15,401738,2,2 AV/E 125 ST,40.802473,-73.933855,25.0
1535,1,M15,401739,3,2 AV/E 122 ST,40.800564,-73.935233,25.0
1536,1,M15,401740,4,2 AV/E 119 ST,40.798669,-73.93661,25.0
1537,1,M15,401741,5,2 AV/E 116 ST,40.796723,-73.93804,25.0
2065,1,M103,403416,5,LEXINGTON AV/E 116 ST,40.798149,-73.942022,25.0
2071,1,M103,404255,2,LEXINGTON AV/E 124 ST,40.803886,-73.937851,25.0
2072,1,M103,402805,3,LEXINGTON AV/E 122 ST,40.802094,-73.939144,25.0
2073,1,M103,405057,4,LEXINGTON AV/E 119 ST,40.800189,-73.94052,25.0
2120,1,M103,803154,1,E 126 ST/2 AV,40.803985,-73.934214,25.0
2483,1,M60+,403676,12,E 125 ST/2 AV,40.803001,-73.934009,25.0
2484,1,M60+,402503,13,E 125 ST/LEXINGTON AV,40.804584,-73.937761,25.0
2485,1,M60+,402504,14,E 125 ST/PARK AV,40.805301,-73.939475,25.0
2495,1,M101,402661,33,E 125 ST/MADISON AV,40.805533,-73.940296,25.0
2496,1,M101,403416,38,LEXINGTON AV/E 116 ST,40.798149,-73.942022,25.0
2507,1,M101,404255,35,LEXINGTON AV/E 124 ST,40.803886,-73.937851,25.0
2508,1,M101,402805,36,LEXINGTON AV/E 122 ST,40.802094,-73.939144,25.0
2509,1,M101,405057,37,LEXINGTON AV/E 119 ST,40.800189,-73.94052,25.0
2571,1,M101,402660,32,E 125 ST/5 AV,40.806201,-73.941853,25.0
2572,1,M101,402662,34,E 125 ST/PARK AV,40.804799,-73.938583,25.0
2612,1,M98,403415,10,PARK AV/E 125 ST,40.804807,-73.939454,25.0
2613,1,M98,403416,11,LEXINGTON AV/E 116 ST,40.798149,-73.942022,25.0
2620,1,M102,403416,17,LEXINGTON AV/E 116 ST,40.798149,-73.942022,25.0
2628,1,M102,401990,15,E 116 ST/MADISON AV,40.799718,-73.944398,25.0
2678,1,M102,401991,16,E 116 ST/PARK AV,40.799351,-73.943519,25.0
2682,1,M116,401998,1,PLEASANT AV/E 120 ST,40.797246,-73.931695,25.0
2683,1,M116,405315,2,PLEASANT AV/E 117 ST,40.795918,-73.932694,25.0
2684,1,M116,401999,3,E 116 ST/PLEASANT AV,40.795306,-73.93351,25.0
2685,1,M116,402000,4,E 116 ST/1 AV,40.796005,-73.935171,25.0
2686,1,M116,402001,5,E 116 ST/2 AV,40.797247,-73.938121,25.0
2687,1,M116,402002,6,E 116 ST/3 AV,40.797928,-73.939742,25.0
2688,1,M116,402003,7,E 116 ST/LEXINGTON AV,40.798601,-73.941471,25.0
2689,1,M116,402004,8,E 116 ST/PARK AV,40.799171,-73.942827,25.0
2690,1,M116,402005,9,E 116 ST/MADISON AV,40.800172,-73.94517,25.0
2691,1,M116,402006,10,E 116 ST/5 AV,40.800626,-73.946224,25.0
2701,1,M35,803026,1,SUNKEN GARDEN LOOP/CHARLES H GAY CTR,40.78509,-73.930827,25.0
2702,1,M35,803028,2,HELL GATE CIRCLE/Nr Tom CLARKE Bldg,40.785379,-73.929126,25.0
2703,1,M35,803029,3,HELL GATE CIRCLE/Opp ODYSSEY House,40.784564,-73.927626,25.0
2704,1,M35,803030,4,HELL GATE CIRCLE/FIELD 61,40.785971,-73.925604,25.0
2705,1,M35,803021,5,HELL GATE CIRCLE/CENTRAL RD,40.789986,-73.925758,25.0
2706,1,M35,404350,6,MAIN RWDY/OPP ICAHN STADIUM,40.792588,-73.923489,25.0
2707,1,M35,414350,7,MAIN RWDY/TENNIS CENTER 2,40.795163,-73.919977,25.0
2708,1,M35,405015,8,MAIN RDY/OPP PARK & RECREATION,40.799485,-73.922512,25.0
2709,1,M35,402498,9,E 126 ST/2 AV,40.80367,-73.933538,25.0
2710,1,M35,403787,10,E 126 ST/3 AV,40.804579,-73.935704,25.0
2711,1,M35,903075,11,LEXINGTON AV/E 125 ST,40.804764,-73.93725,25.0
155,0,M15+,803121,1,SOUTH FERRY/TERMINAL,40.702045,-74.01358,1.0
156,0,M15+,401666,2,WATER ST/WALL ST,40.705287,-74.007109,1.0
157,0,M15+,404850,3,PEARL ST/FULTON ST,40.70755,-74.003857,1.0
183,0,M15,401666,4,WATER ST/WALL ST,40.705287,-74.007109,1.0
184,0,M15,404850,5,PEARL ST/FULTON ST,40.70755,-74.003857,1.0
197,0,M15,803019,1,SOUTH ST/WHITEHALL ST,40.701536,-74.012485,1.0
198,0,M15,401664,2,WATER ST/BROAD ST,40.703036,-74.010834,1.0
199,0,M15,401665,3,WATER ST/OLD SLIP,40.704274,-74.00849,1.0
200,0,M15,401669,6,PEARL ST/PECK SLIP,40.708968,-74.002171,1.0
234,0,M22,405054,1,VESEY ST/NORTH END AV,40.714631,-74.015692,1.0
235,0,M22,405056,2,NORTH END AV/WARREN ST,40.717072,-74.014087,1.0
236,0,M22,404969,3,CHAMBERS ST/GREENWICH ST,40.716076,-74.010616,1.0
237,0,M22,404976,4,CHAMBERS ST/W BROADWAY,40.715377,-74.009105,1.0
238,0,M22,404977,5,CHAMBERS ST/CHURCH ST,40.714769,-74.007746,1.0
239,0,M22,404219,6,BROADWAY/WARREN ST,40.713766,-74.006749,1.0
240,0,M22,903280,7,PARK ROW/SPRUCE ST,40.711897,-74.006203,1.0
241,0,M22,404101,8,FRANKFORT ST/WILLIAM ST,40.711388,-74.004401,1.0
242,0,M22,402085,9,FRANKFORT ST/PEARL ST,40.709555,-74.001873,1.0
275,0,M9,903280,4,PARK ROW/SPRUCE ST,40.711897,-74.006203,1.0
279,0,M9,403399,1,SOUTH END AV/ALBANY ST,40.711472,-74.015762,1.0
280,0,M9,803147,2,WARREN ST/GREENWICH ST,40.715614,-74.011327,1.0
281,0,M9,803105,3,WARREN ST/CHURCH ST,40.714232,-74.008257,1.0
300,0,M20,405056,8,NORTH END AV/WARREN ST,40.717072,-74.014087,1.0
301,0,M20,403397,5,WEST THAMES ST/SOUTH END AV,40.708407,-74.017093,1.0
302,0,M20,403399,6,SOUTH END AV/ALBANY ST,40.711472,-74.015762,1.0
304,0,M20,803184,1,STATE ST/WHITEHALL ST,40.70242,-74.013049,1.0
305,0,M20,400903,2,STATE ST/BRIDGE ST,40.704209,-74.014192,1.0
306,0,M20,404983,3,BATTERY PL/WEST ST,40.704998,-74.017384,1.0
307,0,M20,404986,4,BATTERY PL/3 PL,40.707616,-74.016909,1.0
308,0,M20,405063,7,MURRAY ST/NORTH END AV,40.715733,-74.015035,1.0
309,0,M20,405065,9,WEST ST/CHAMBERS ST,40.717479,-74.01255,1.0
310,0,M20,404864,10,HARRISON ST/WEST ST,40.718895,-74.012053,1.0
311,0,M20,404863,11,HARRISON ST/HUDSON ST,40.718596,-74.009167,1.0
312,0,M20,403444,12,HUDSON ST/NORTH MOORE ST,40.719859,-74.008499,1.0
313,0,M20,404832,13,HUDSON ST/SPRING ST,40.726026,-74.007396,1.0
314,0,M20,401301,14,HUDSON ST/CHARLTON ST,40.727185,-74.007248,1.0
341,0,M21,404990,1,SPRING ST/GREENWICH ST,40.725908,-74.00874,1.0
342,0,M21,403851,2,SPRING ST/HUDSON ST,40.725735,-74.007198,1.0
343,0,M21,400917,3,6 AV/SPRING ST,40.72573,-74.00387,1.0
344,0,M21,404132,4,AV OF THE AMERICAS/PRINCE ST,40.727023,-74.003348,1.0
345,0,M21,402022,5,W HOUSTON ST/AV OF THE AMERICAS,40.728226,-74.002663,1.0
346,0,M21,402023,6,W HOUSTON ST/SULLIVAN ST,40.727478,-74.001098,1.0
347,0,M21,402024,7,W HOUSTON ST/W BROADWAY,40.726524,-73.999412,1.0
348,0,M21,405172,8,W HOUSTON ST/GREENE ST,40.725949,-73.998326,1.0
384,0,M55,404132,15,AV OF THE AMERICAS/PRINCE ST,40.727023,-74.003348,1.0
385,0,M55,803184,1,STATE ST/WHITEHALL ST,40.70242,-74.013049,1.0
386,0,M55,400903,2,STATE ST/BRIDGE ST,40.704209,-74.014192,1.0
387,0,M55,405256,3,TRINITY PL/MORRIS ST,40.706259,-74.014231,1.0
388,0,M55,400070,4,TRINITY PL/RECTOR ST,40.708007,-74.012714,1.0
389,0,M55,400071,5,CHURCH ST/LIBERTY ST,40.710016,-74.011358,1.0
390,0,M55,404108,6,CHURCH ST/VESEY ST,40.712127,-74.010049,1.0
391,0,M55,405279,7,CHURCH ST/WARREN ST,40.714147,-74.008419,1.0
392,0,M55,400910,8,CHURCH ST/CHAMBERS ST,40.714954,-74.007835,1.0
393,0,M55,405024,9,CHURCH ST/WORTH ST,40.716678,-74.006421,1.0
394,0,M55,400913,10,AV OF THE AMERICAS/WHITE ST,40.719318,-74.005054,1.0
395,0,M55,403847,11,AV OF THE AMERICAS/WEST BROADWAY,40.720826,-74.004936,1.0
396,0,M55,400915,12,6 AV/THOMPSON ST,40.722291,-74.005193,1.0
397,0,M55,400916,13,AV OF THE AMERICAS/BROOME ST,40.724232,-74.004455,1.0
398,0,M55,803160,14,AV OF THE AMERICAS/SPRING ST,40.725275,-74.003983,1.0
707,0,M103,903281,1,PARK ROW/BEEKMAN ST,40.71173,-74.006841,1.0
1518,1,M15+,403590,20,PEARL ST/FULTON ST,40.707631,-74.004,1.0
1519,1,M15+,403754,21,WATER ST/WALL ST,40.705045,-74.007758,1.0
1520,1,M15+,803120,22,SOUTH FERRY/TERMINAL,40.70191,-74.013846,1.0
1534,1,M15,403590,58,PEARL ST/FULTON ST,40.707631,-74.004,1.0
1578,1,M15,401797,57,PEARL ST/FRANKFORT ST,40.709399,-74.001915,1.0
1579,1,M15,403831,59,WATER ST/JOHN ST,40.706813,-74.00523,1.0
1580,1,M15,405337,60,WATER ST/GOUVERNEUR LA,40.704661,-74.008294,1.0
1581,1,M15,401802,61,WATER ST/HANOVER SQ,40.703882,-74.009427,1.0
1582,1,M15,405084,62,BROAD ST/WATER ST,40.702539,-74.011487,1.0
1583,1,M15,803002,63,SOUTH ST/WHITEHALL ST,40.701609,-74.012226,1.0
1600,1,M22,402119,17,CHAMBERS ST/CHURCH ST,40.714935,-74.00773,1.0
1601,1,M22,402120,18,CHAMBERS ST/HUDSON ST,40.715652,-74.009434,1.0
1602,1,M22,402080,19,CHAMBERS ST/WEST ST,40.717131,-74.012599,1.0
1603,1,M22,405062,20,NORTH END AV/WARREN ST,40.717251,-74.014498,1.0
1604,1,M22,405053,21,MURRAY ST/NORTH END AV,40.715482,-74.015376,1.0
1605,1,M22,803094,22,VESEY ST/NORTH END AV,40.71453,-74.015356,1.0
1654,1,M9,903282,27,PARK ROW/BEEKMAN ST,40.711756,-74.007362,1.0
1655,1,M9,803106,28,MURRAY ST/CHURCH ST,40.714515,-74.010225,1.0
1656,1,M9,803107,29,MURRAY ST/GREENWICH ST,40.715042,-74.011504,1.0
1657,1,M9,403397,30,WEST THAMES ST/SOUTH END AV,40.708407,-74.017093,1.0
1658,1,M9,803108,31,SOUTH END AV/ALBANY ST,40.710277,-74.016204,1.0
1659,1,M20,402120,29,CHAMBERS ST/HUDSON ST,40.715652,-74.009434,1.0
1660,1,M20,402080,31,CHAMBERS ST/WEST ST,40.717131,-74.012599,1.0
1661,1,M20,405062,32,NORTH END AV/WARREN ST,40.717251,-74.014498,1.0
1686,1,M20,401377,25,VARICK ST/CHARLTON ST,40.726861,-74.005711,1.0
1687,1,M20,401379,26,VARICK ST/WATTS ST,40.723663,-74.006267,1.0
1688,1,M20,401380,27,VARICK ST/NORTH MOORE ST,40.719658,-74.006955,1.0
1689,1,M20,401381,28,W BROADWAY/DUANE ST,40.716367,-74.008661,1.0
1690,1,M20,404973,30,CHAMBERS ST/GREENWICH ST,40.716554,-74.011352,1.0
1691,1,M20,403878,33,VESEY ST/NORTH END AV,40.714555,-74.015847,1.0
1692,1,M20,405124,34,SOUTH END AV/GATEWAY PLAZA,40.710619,-74.016257,1.0
1693,1,M20,405125,35,WEST THAMES ST/SOUTH END AV,40.708324,-74.017266,1.0
1694,1,M20,404979,36,BATTERY PL/3 PL,40.70727,-74.017356,1.0
1695,1,M20,404980,37,BATTERY PL/1 PL,40.705837,-74.018088,1.0
1696,1,M20,803164,38,BATTERY PL/WASHINGTON ST,40.704761,-74.015579,1.0
1697,1,M20,403953,39,STATE ST/BRIDGE ST,40.70335,-74.014524,1.0
1698,1,M20,803185,40,STATE ST/WHITEHALL ST,40.702353,-74.013036,1.0
1718,1,M21,403854,20,WASHINGTON ST/W HOUSTON ST,40.72725,-74.009716,1.0
1744,1,M55,403953,34,STATE ST/BRIDGE ST,40.70335,-74.014524,1.0
1745,1,M55,803185,35,STATE ST/WHITEHALL ST,40.702353,-74.013036,1.0
1764,1,M55,403311,21,BROADWAY/W HOUSTON ST,40.725107,-73.997106,1.0
1765,1,M55,404916,22,BROADWAY/PRINCE ST,40.724012,-73.998084,1.0
1766,1,M55,400157,23,BROADWAY/SPRING ST,40.722843,-73.999066,1.0
1767,1,M55,400159,24,BROADWAY/GRAND ST,40.720691,-74.000891,1.0
1768,1,M55,405266,25,BROADWAY/WALKER ST,40.718758,-74.002543,1.0
1769,1,M55,405377,26,BROADWAY/FRANKLIN ST,40.71755,-74.003528,1.0
1770,1,M55,405230,27,BROADWAY/DUANE ST,40.715143,-74.005594,1.0
1771,1,M55,404224,28,BROADWAY/CHAMBERS ST,40.714037,-74.006484,1.0
1772,1,M55,400166,29,BROADWAY/PARK PL,40.712679,-74.007665,1.0
1773,1,M55,404225,30,BROADWAY/BARCLAY ST,40.711896,-74.008313,1.0
1774,1,M55,400168,31,BROADWAY/CORTLANDT ST,40.709969,-74.009942,1.0
1775,1,M55,400988,32,BROADWAY/THAMES ST,40.708643,-74.011062,1.0
1776,1,M55,400170,33,BROADWAY/RECTOR ST,40.707554,-74.01196,1.0
1892,1,M1,403311,63,BROADWAY/W HOUSTON ST,40.725107,-73.997106,1.0
1893,1,M1,404916,64,BROADWAY/PRINCE ST,40.724012,-73.998084,1.0
1894,1,M1,400157,65,BROADWAY/SPRING ST,40.722843,-73.999066,1.0
2064,1,M103,903282,57,PARK ROW/BEEKMAN ST,40.711756,-74.007362,1.0
158,0,M15+,405319,4,MADISON ST/CATHERINE ST,40.71193,-73.997157,5.0
176,0,M15,401670,7,ST JAMES PL/R F WAGNER SR PL,40.710594,-74.000752,5.0
177,0,M15,402088,8,MADISON ST/OLIVER ST,40.711877,-73.997922,5.0
178,0,M15,402090,9,MADISON ST/MARKET ST,40.712207,-73.994092,5.0
243,0,M22,401670,10,ST JAMES PL/R F WAGNER SR PL,40.710594,-74.000752,5.0
244,0,M22,402088,11,MADISON ST/OLIVER ST,40.711877,-73.997922,5.0
245,0,M22,402090,12,MADISON ST/MARKET ST,40.712207,-73.994092,5.0
282,0,M9,404857,5,PARK ROW/ST JAMES PL,40.713383,-73.998691,5.0
283,0,M9,405006,6,E BROADWAY/CATHERINE ST,40.713376,-73.997392,5.0
284,0,M9,401168,7,E BROADWAY/FORSYTH ST,40.713675,-73.994096,5.0
349,0,M21,402028,9,E HOUSTON ST/MOTT ST,40.724449,-73.993704,5.0
350,0,M21,402030,10,E HOUSTON ST/BOWERY,40.723836,-73.992093,5.0
351,0,M21,401787,11,E HOUSTON ST/FORSYTH ST,40.723329,-73.990427,5.0
570,0,M1,903130,1,CENTRE ST/BROOME ST,40.720643,-73.997694,5.0
571,0,M1,400081,2,CLEVELAND  PL/SPRING ST,40.722433,-73.997008,5.0
708,0,M103,404851,2,PARK ROW/ST JAMES PL,40.713383,-73.998691,5.0
709,0,M103,402753,3,BOWERY/BAYARD ST,40.715391,-73.996465,5.0
710,0,M103,405269,4,BOWERY/HESTER ST,40.717343,-73.9953,5.0
711,0,M103,402755,5,BOWERY/GRAND ST,40.718788,-73.994542,5.0
712,0,M103,402757,6,BOWERY/DELANCEY ST,40.720748,-73.993726,5.0
713,0,M103,402760,7,BOWERY/E HOUSTON ST,40.72392,-73.992585,5.0
1514,1,M15+,803109,16,E HOUSTON ST/FORSYTH ST,40.723377,-73.990631,5.0
1515,1,M15+,403849,17,ALLEN ST/E HOUSTON ST,40.722516,-73.98899,5.0
1516,1,M15+,405373,18,ALLEN ST/HESTER ST,40.716371,-73.992021,5.0
1517,1,M15+,402112,19,MADISON ST/CATHERINE ST,40.712064,-73.997462,5.0
1521,1,M15,401787,47,E HOUSTON ST/FORSYTH ST,40.723329,-73.990427,5.0
1531,1,M15,403849,48,ALLEN ST/E HOUSTON ST,40.722516,-73.98899,5.0
1532,1,M15,405373,50,ALLEN ST/HESTER ST,40.716371,-73.992021,5.0
1533,1,M15,402112,54,MADISON ST/CATHERINE ST,40.712064,-73.997462,5.0
1572,1,M15,403647,49,ALLEN ST/DELANCEY ST,40.719411,-73.990466,5.0
1573,1,M15,401793,51,ALLEN ST/CANAL ST,40.714855,-73.992805,5.0
1574,1,M15,404844,52,PIKE ST/MADISON ST,40.712625,-73.992622,5.0
1575,1,M15,402111,53,MADISON ST/MARKET ST,40.712325,-73.994744,5.0
1576,1,M15,903054,55,MADISON ST/ST JAMES PL,40.711883,-73.99943,5.0
1577,1,M15,404327,56,PEARL ST / PEARL ST,40.710832,-74.000822,5.0
1594,1,M22,401209,11,E BROADWAY/MARKET ST,40.71373,-73.995011,5.0
1595,1,M22,401210,12,E BROADWAY/CATHERINE ST,40.71351,-73.997626,5.0
1596,1,M22,403350,13,WORTH ST/MOTT ST,40.713757,-73.999037,5.0
1597,1,M22,401806,14,WORTH ST/CENTRE ST,40.715354,-74.002503,5.0
1598,1,M22,401808,15,CENTRE ST/CHAMBERS ST,40.713272,-74.004029,5.0
1599,1,M22,402118,16,CHAMBERS ST/BROADWAY,40.714164,-74.006143,5.0
1628,1,M9,401209,24,E BROADWAY/MARKET ST,40.71373,-73.995011,5.0
1629,1,M9,401210,25,E BROADWAY/CATHERINE ST,40.71351,-73.997626,5.0
1653,1,M9,402870,26,PARK ROW/WORTH ST,40.713411,-73.998961,5.0
1938,1,M1,803192,66,CENTRE ST/BROOME ST,40.720574,-73.997755,5.0
2113,1,M103,402863,50,BOWERY/E HOUSTON ST,40.723756,-73.992907,5.0
2114,1,M103,402864,51,BOWERY/PRINCE ST,40.722055,-73.993513,5.0
2115,1,M103,402865,52,BOWERY/KENMARE ST,40.720035,-73.994296,5.0
2116,1,M103,402867,53,BOWERY/GRAND ST,40.718135,-73.995079,5.0
2117,1,M103,402868,54,BOWERY/CANAL ST,40.715915,-73.996422,5.0
2118,1,M103,402869,55,BOWERY/BAYARD ST,40.714772,-73.9971,5.0
2119,1,M103,803077,56,PARK ROW/WORTH ST,40.713396,-73.999059,5.0
159,0,M15+,405320,5,ALLEN ST/GRAND ST,40.717171,-73.991222,7.0
185,0,M15,405320,12,ALLEN ST/GRAND ST,40.717171,-73.991222,7.0
201,0,M15,404843,10,PIKE ST/MADISON ST,40.71288,-73.992288,7.0
202,0,M15,401675,11,PIKE ST/DIVISION ST,40.714303,-73.992468,7.0
203,0,M15,401679,13,ALLEN ST/DELANCEY ST,40.719558,-73.989999,7.0
204,0,M15,401681,14,ALLEN ST/STANTON ST,40.721896,-73.988839,7.0
246,0,M22,402091,13,MADISON ST/PIKE ST,40.712393,-73.992032,7.0
247,0,M22,402092,14,MADISON ST/RUTGERS ST,40.712601,-73.989561,7.0
248,0,M22,402093,15,MADISON ST/JEFFERSON ST,40.712697,-73.988399,7.0
249,0,M22,402094,16,MADISON ST/CLINTON ST,40.712865,-73.986455,7.0
250,0,M22,402095,17,MADISON ST/MONTGOMERY ST,40.713043,-73.984583,7.0
251,0,M22,402096,18,MADISON ST/GOUVERNEUR ST,40.713152,-73.983555,7.0
252,0,M22,402097,19,MADISON ST/GOUVERNEUR ST,40.713331,-73.981762,7.0
253,0,M22,404922,20,MADISON ST/GRAND ST,40.713503,-73.980417,7.0
254,0,M22,903025,21,GRAND ST/FDR DR,40.713355,-73.978278,7.0
255,0,M14A+,903025,20,GRAND ST/FDR DR,40.713355,-73.978278,7.0
256,0,M14A+,403318,14,ESSEX ST/DELANCEY ST,40.718247,-73.988474,7.0
270,0,M14A+,403475,15,GRAND ST/ESSEX ST,40.716485,-73.988824,7.0
271,0,M14A+,401139,16,GRAND ST/CLINTON ST,40.715758,-73.986415,7.0
272,0,M14A+,401140,17,GRAND ST/PITT ST,40.715164,-73.984467,7.0
273,0,M14A+,401141,18,GRAND ST/EAST BROADWAY,40.714594,-73.982301,7.0
274,0,M14A+,401142,19,GRAND ST/JACKSON ST,40.71408,-73.980611,7.0
276,0,M9,402033,12,E HOUSTON ST/NORFOLK ST,40.721682,-73.984971,7.0
277,0,M9,402034,13,E HOUSTON ST/CLINTON ST,40.721285,-73.983737,7.0
278,0,M9,404100,14,E HOUSTON ST/RIDGE ST,40.720652,-73.981642,7.0
285,0,M9,401169,8,E BROADWAY/PIKE ST,40.713808,-73.99265,7.0
286,0,M9,405165,9,ESSEX ST/CANAL ST,40.715445,-73.989723,7.0
287,0,M9,403317,10,ESSEX ST/GRAND ST,40.71682,-73.989005,7.0
288,0,M9,403732,11,ESSEX ST/DELANCEY ST,40.718944,-73.987893,7.0
352,0,M21,402032,12,E HOUSTON ST/ESSEX ST,40.722147,-73.986565,7.0
353,0,M21,402033,13,E HOUSTON ST/NORFOLK ST,40.721682,-73.984971,7.0
354,0,M21,402034,14,E HOUSTON ST/CLINTON ST,40.721285,-73.983737,7.0
355,0,M21,404100,15,E HOUSTON ST/RIDGE ST,40.720652,-73.981642,7.0
356,0,M21,403808,16,E HOUSTON ST/COLUMBIA ST,40.719626,-73.978387,7.0
357,0,M21,401598,17,E HOUSTON ST/BARUCH DR,40.719096,-73.976883,7.0
358,0,M21,401599,18,E HOUSTON ST/MANGIN ST,40.718835,-73.975614,7.0
359,0,M21,401600,19,F. D. R. DRIVE/555 FDR DR,40.71675,-73.975842,7.0
360,0,M21,803115,20,GRAND ST/FDR DR,40.71335,-73.977745,7.0
361,0,M14D+,403808,19,E HOUSTON ST/COLUMBIA ST,40.719626,-73.978387,7.0
362,0,M14D+,401599,20,E HOUSTON ST/MANGIN ST,40.718835,-73.975614,7.0
363,0,M14D+,401600,21,F. D. R. DRIVE/555 FDR DR,40.71675,-73.975842,7.0
382,0,M14D+,403557,22,DELANCEY ST/FDR DR,40.715368,-73.976655,7.0
383,0,M14D+,903088,23,DELANCY ST/COLUMBIA ST,40.716404,-73.980285,7.0
1584,1,M22,402100,1,GRAND ST/FDR DR,40.713264,-73.977982,7.0
1585,1,M22,402102,2,CHERRY ST/JACKSON ST,40.712296,-73.980525,7.0
1586,1,M22,402103,3,JACKSON ST/MADISON ST,40.713361,-73.980705,7.0
1587,1,M22,402104,4,MADISON ST/JACKSON ST,40.713586,-73.981358,7.0
1588,1,M22,402105,5,MADISON ST/GOUVERNEUR ST,40.713218,-73.984341,7.0
1589,1,M22,402106,6,MADISON ST/MONTGOMERY ST,40.713092,-73.985553,7.0
1590,1,M22,402107,7,MADISON ST/CLINTON ST,40.712931,-73.98744,7.0
1591,1,M22,402108,8,MADISON ST/JEFFERSON ST,40.712807,-73.988886,7.0
1592,1,M22,402109,9,MADISON ST/RUTGERS ST,40.712684,-73.990419,7.0
1593,1,M22,402110,10,MADISON ST/PIKE ST,40.712489,-73.992197,7.0
1606,1,M14A+,402100,1,GRAND ST/FDR DR,40.713264,-73.977982,7.0
1607,1,M14A+,402103,2,JACKSON ST/MADISON ST,40.713361,-73.980705,7.0
1608,1,M14A+,403317,6,ESSEX ST/GRAND ST,40.71682,-73.989005,7.0
1609,1,M14A+,403732,7,ESSEX ST/DELANCEY ST,40.718944,-73.987893,7.0
1610,1,M14A+,401147,3,GRAND ST/COLUMBIA ST,40.714486,-73.981455,7.0
1611,1,M14A+,401149,4,GRAND ST/PITT ST,40.715328,-73.984449,7.0
1612,1,M14A+,401150,5,GRAND ST/CLINTON ST,40.716095,-73.986873,7.0
1647,1,M9,401202,18,ESSEX ST/E HOUSTON ST,40.721859,-73.986612,7.0
1648,1,M9,403319,19,ESSEX ST/RIVINGTON ST,40.719587,-73.987781,7.0
1649,1,M9,403318,20,ESSEX ST/DELANCEY ST,40.718247,-73.988474,7.0
1650,1,M9,401206,21,ESSEX ST/GRAND ST,40.716867,-73.989185,7.0
1651,1,M9,404287,22,ESSEX ST/ E BROADWAY,40.714094,-73.990301,7.0
1652,1,M9,401208,23,E BROADWAY/PIKE ST,40.713947,-73.992385,7.0
1699,1,M21,405372,1,GRAND ST/FDR DRIVE,40.713361,-73.977793,7.0
1700,1,M21,405352,2,LEWIS ST/GRAND ST,40.714038,-73.979844,7.0
1701,1,M21,823252,3,LEWIS ST/Delancy (not used),40.715465,-73.97912,7.0
1702,1,M21,403380,4,DELANCEY ST/COLUMBIA ST,40.716444,-73.980503,7.0
1703,1,M21,401624,5,COLUMBIA ST/RIVINGTON ST,40.71778,-73.979762,7.0
1704,1,M21,405350,6,COLUMBIA ST/HOUSTON ST,40.719624,-73.978732,7.0
1719,1,M14D+,403380,1,DELANCEY ST/COLUMBIA ST,40.716444,-73.980503,7.0
1720,1,M14D+,401624,2,COLUMBIA ST/RIVINGTON ST,40.71778,-73.979762,7.0
160,0,M15+,903093,6,1 AV/E 1 ST,40.724012,-73.987802,9.0
205,0,M15,401682,15,1 AV/E 2 ST,40.723561,-73.988177,9.0
206,0,M15,405098,16,1 AV / 4 ST,40.725463,-73.986785,9.0
207,0,M15,401685,17,1 AV/ST MARKS PL,40.727823,-73.985061,9.0
208,0,M15,401686,18,1 AV/E 11 ST,40.729636,-73.983733,9.0
262,0,M14A+,403556,6,E 14 ST/IRVING PL,40.733947,-73.988902,9.0
263,0,M14A+,401191,7,E 14 ST/3 AV,40.733008,-73.986729,9.0
264,0,M14A+,401192,8,E 14 ST/2 AV,40.732083,-73.984535,9.0
265,0,M14A+,401193,9,E 14 ST/1 AV,40.731086,-73.982172,9.0
266,0,M14A+,803193,10,AV A/E 14 ST,40.730267,-73.980555,9.0
267,0,M14A+,401610,11,AV A/E 11 ST,40.728215,-73.982068,9.0
268,0,M14A+,401612,12,AV A/E 5 ST,40.724575,-73.984651,9.0
269,0,M14A+,903250,13,AV A/E HOUSTON ST,40.722345,-73.986267,9.0
289,0,M9,402036,15,AV C/E 3 ST,40.721781,-73.980425,9.0
290,0,M9,402037,16,AV C/E 5 ST,40.723008,-73.979516,9.0
291,0,M9,402038,17,AV C/E 7 ST,40.724334,-73.978577,9.0
292,0,M9,402039,18,AV C/E 11 ST,40.726278,-73.97714,9.0
293,0,M9,401630,19,AV C/E 12 ST,40.727333,-73.976332,9.0
294,0,M9,402041,20,AV C/E 14 ST,40.728297,-73.975689,9.0
364,0,M14D+,401591,16,E 10 ST/AV D,40.724868,-73.975315,9.0
365,0,M14D+,401589,15,AV C/E 12 ST,40.726979,-73.976815,9.0
370,0,M14D+,403556,8,E 14 ST/IRVING PL,40.733947,-73.988902,9.0
371,0,M14D+,401191,9,E 14 ST/3 AV,40.733008,-73.986729,9.0
372,0,M14D+,401192,10,E 14 ST/2 AV,40.732083,-73.984535,9.0
373,0,M14D+,401193,11,E 14 ST/1 AV,40.731086,-73.982172,9.0
377,0,M14D+,401194,12,E 14 ST/AV A,40.730341,-73.980297,9.0
378,0,M14D+,401195,13,E 14 ST/AV B,40.72942,-73.978171,9.0
379,0,M14D+,401587,14,E 14 ST/AV C,40.728428,-73.975827,9.0
380,0,M14D+,401595,17,AV D/E 6 ST,40.722269,-73.977174,9.0
381,0,M14D+,401596,18,AV D/E 4 ST,40.721056,-73.978055,9.0
428,0,M8,404010,13,E 8 ST/LAFAYETTE ST,40.730069,-73.991279,9.0
429,0,M8,401542,14,ST MARKS PL/3 AV,40.729322,-73.989533,9.0
430,0,M8,401543,15,ST MARKS PL/2 AV,40.728611,-73.987848,9.0
431,0,M8,401544,16,ST MARKS PL/1 AV,40.727381,-73.984926,9.0
432,0,M8,401545,17,ST MARKS PL/AV A,40.72672,-73.983353,9.0
433,0,M8,401547,18,E 10 ST/AV A,40.727645,-73.981877,9.0
434,0,M8,401548,19,E 10 ST/AV B,40.726672,-73.97959,9.0
435,0,M8,401549,20,E 10 ST/AV C,40.725667,-73.97722,9.0
436,0,M8,401591,21,E 10 ST/AV D,40.724868,-73.975315,9.0
437,0,M8,803177,22,AV D/LOOP,40.724689,-73.974548,9.0
457,0,M2,400001,1,4 AV/E 10 ST,40.731342,-73.990292,9.0
489,0,M2,400002,2,4 AV/E 12 ST,40.732608,-73.989958,9.0
490,0,M2,400003,3,4 AV/E 13 ST,40.733936,-73.98972,9.0
515,0,M1,400001,6,4 AV/E 10 ST,40.731342,-73.990292,9.0
529,0,M1,400002,7,4 AV/E 12 ST,40.732608,-73.989958,9.0
530,0,M1,400003,8,4 AV/E 13 ST,40.733936,-73.98972,9.0
572,0,M1,400083,3,LAFAYETTE ST/E HOUSTON ST,40.72517,-73.995221,9.0
573,0,M1,400085,4,LAFAYETTE ST/E 4 ST,40.728066,-73.992849,9.0
574,0,M1,400086,5,LAFAYETTE ST/ASTOR PL,40.729751,-73.991427,9.0
581,0,M3,400001,1,4 AV/E 10 ST,40.731342,-73.990292,9.0
599,0,M3,400002,2,4 AV/E 12 ST,40.732608,-73.989958,9.0
600,0,M3,400003,3,4 AV/E 13 ST,40.733936,-73.98972,9.0
714,0,M103,405130,8,BOWERY/E 1 ST,40.725148,-73.992108,9.0
715,0,M103,402762,9,BOWERY/E 3 ST,40.726723,-73.991525,9.0
716,0,M103,402666,10,COOPER SQ/E 6 ST,40.728395,-73.990611,9.0
717,0,M103,405155,11,3 AV/E 9 ST,40.730389,-73.989235,9.0
718,0,M103,403526,12,3 AV/E 11 ST,40.73168,-73.988278,9.0
1151,0,M101,405155,2,3 AV/E 9 ST,40.730389,-73.989235,9.0
1152,0,M101,403526,3,3 AV/E 11 ST,40.73168,-73.988278,9.0
1211,0,M101,903147,1,ASTOR PL/3 AV,40.729567,-73.990052,9.0
1281,0,M102,405155,2,3 AV/E 9 ST,40.730389,-73.989235,9.0
1282,0,M102,403526,3,3 AV/E 11 ST,40.73168,-73.988278,9.0
1316,0,M102,903147,1,ASTOR PL/3 AV,40.729567,-73.990052,9.0
1513,1,M15+,405340,15,2 AV/E 13 ST,40.73179,-73.985449,9.0
1568,1,M15,404105,43,2 AV/E 12 ST,40.730796,-73.986156,9.0
1569,1,M15,401784,44,2 AV/E 9 ST,40.728891,-73.987523,9.0
1570,1,M15,401785,45,2 AV/E 6 ST,40.727161,-73.988785,9.0
1571,1,M15,401786,46,2 AV/E 3 ST,40.725343,-73.990108,9.0
1613,1,M14A+,403320,8,AV A/E HOUSTON ST,40.722573,-73.985955,9.0
1614,1,M14A+,401657,9,AV A/E 5 ST,40.7251,-73.984118,9.0
1615,1,M14A+,401659,10,AV A/E 11 ST,40.728676,-73.981509,9.0
1616,1,M14A+,401660,11,AV A/E 14 ST,40.729975,-73.980567,9.0
1630,1,M9,403303,16,E HOUSTON ST/AV C,40.720988,-73.981738,9.0
1631,1,M9,402067,17,E HOUSTON ST/AV B,40.721692,-73.984158,9.0
1642,1,M9,401589,11,AV C/E 12 ST,40.726979,-73.976815,9.0
1643,1,M9,403307,12,AV C/E 10 ST,40.725624,-73.977837,9.0
1644,1,M9,403306,13,AV C/E 8 ST,40.724441,-73.978696,9.0
1645,1,M9,403305,14,AV C/E 6 ST,40.723242,-73.979573,9.0
1646,1,M9,403304,15,AV C/E 3 ST,40.721384,-73.980901,9.0
1705,1,M21,403303,7,E HOUSTON ST/AV C,40.720988,-73.981738,9.0
1706,1,M21,402067,8,E HOUSTON ST/AV B,40.721692,-73.984158,9.0
1707,1,M21,402068,9,E HOUSTON ST/AV A,40.722234,-73.986069,9.0
1708,1,M21,405311,10,E HOUSTON ST/1 AV,40.723164,-73.988978,9.0
1709,1,M21,403731,11,E HOUSTON ST/2 AV,40.723879,-73.991401,9.0
1710,1,M21,402071,12,E HOUSTON ST/BOWERY,40.724255,-73.992852,9.0
1711,1,M21,404155,13,E HOUSTON ST/MOTT ST,40.724865,-73.994531,9.0
1712,1,M21,405361,14,E HOUSTON ST/CROSBY ST,40.725297,-73.996086,9.0
1721,1,M14D+,403443,5,E 10 ST/AV D,40.725082,-73.975456,9.0
1722,1,M14D+,402039,6,AV C/E 11 ST,40.726278,-73.97714,9.0
1732,1,M14D+,401625,3,AV D/E HOUSTON ST,40.72009,-73.97855,9.0
1733,1,M14D+,401626,4,AV D/E 5 ST,40.722118,-73.977073,9.0
1736,1,M14D+,401183,9,E 14 ST/AV A,40.730403,-73.980261,9.0
1777,1,M8,403443,1,E 10 ST/AV D,40.725082,-73.975456,9.0
1778,1,M8,401552,2,E 10 ST/AV C,40.726046,-73.977844,9.0
1779,1,M8,401553,3,E 10 ST/AV B,40.727049,-73.980214,9.0
1780,1,M8,401554,4,E 10 ST/AV A,40.727828,-73.982068,9.0
1781,1,M8,401555,5,E 9 ST/AV A,40.727464,-73.982999,9.0
1782,1,M8,401556,6,E 9 ST/1 AV,40.728392,-73.985207,9.0
1783,1,M8,401557,7,E 9 ST/2 AV,40.729413,-73.987642,9.0
1784,1,M8,401558,8,E 9 ST/3 AV,40.730094,-73.989262,9.0
1785,1,M8,401559,9,E 9 ST/4 AV,40.730549,-73.990323,9.0
1800,1,M2,404010,74,E 8 ST/LAFAYETTE ST,40.730069,-73.991279,9.0
1872,1,M2,403793,75,4 AV/E 9 ST,40.73028,-73.990532,9.0
1992,1,M3,903048,80,E 8 ST/LAFAYETTE ST,40.730039,-73.991312,9.0
2108,1,M103,404106,45,3 AV/E 14 ST,40.732955,-73.987502,9.0
2109,1,M103,402858,46,3 AV/E 11 ST,40.730973,-73.988946,9.0
2110,1,M103,404092,47,3 AV/ASTOR PL,40.729314,-73.990194,9.0
2111,1,M103,903276,48,COOPER SQ/E 4 ST,40.727148,-73.991556,9.0
2112,1,M103,402862,49,BOWERY/BLEECKER ST,40.725346,-73.992211,9.0
2544,1,M101,404106,78,3 AV/E 14 ST,40.732955,-73.987502,9.0
2545,1,M101,402858,79,3 AV/E 11 ST,40.730973,-73.988946,9.0
2546,1,M101,903148,80,3 AV/ASTOR PL,40.729113,-73.990259,9.0
2675,1,M102,404106,57,3 AV/E 14 ST,40.732955,-73.987502,9.0
2676,1,M102,402858,58,3 AV/E 11 ST,40.730973,-73.988946,9.0
2677,1,M102,903148,59,3 AV/ASTOR PL,40.729113,-73.990259,9.0
161,0,M15+,401687,7,1 AV/E 14 ST,40.732122,-73.981946,13.0
162,0,M15+,405323,8,1 AV/E 25 ST,40.737991,-73.977607,13.0
163,0,M15+,404995,9,1 AV/E 28 ST,40.74057,-73.975823,13.0
179,0,M15,405396,24,1 AV/E 27 ST,40.739627,-73.976496,13.0
186,0,M15,401687,19,1 AV/E 14 ST,40.732122,-73.981946,13.0
187,0,M15,404995,25,1 AV/E 28 ST,40.74057,-73.975823,13.0
209,0,M15,401688,20,1 AV/E 17 ST,40.733155,-73.981188,13.0
210,0,M15,401689,21,1 AV/E 20 ST,40.735109,-73.979751,13.0
211,0,M15,401690,22,1 AV/E 23 ST,40.737053,-73.978368,13.0
212,0,M15,401691,23,1 AV/E 25 ST,40.738501,-73.977296,13.0
295,0,M9,402042,21,AV C/E 16 ST,40.729699,-73.974715,13.0
296,0,M9,402043,22,AV C/FDR DRIVE,40.730813,-73.973903,13.0
297,0,M9,404099,23,E 20 ST/E 20 ST Loop,40.734053,-73.97755,13.0
298,0,M9,405368,24,1 AV/E 23 ST,40.736654,-73.978633,13.0
299,0,M9,903080,25,1 AV/E 26 ST,40.738626,-73.97711,13.0
404,0,M55,400726,21,AV OF THE AMERICAS/W 15 ST,40.738103,-73.99621,13.0
405,0,M55,404991,22,AV OF THE AMERICAS/W 18 ST,40.739588,-73.995074,13.0
406,0,M55,403914,23,AV OF THE AMERICAS/W 20 ST,40.741155,-73.993876,13.0
407,0,M55,400929,24,AV OF THE AMERICAS/W 23 ST,40.743027,-73.992644,13.0
408,0,M55,400731,25,AV OF THE AMERICAS/W 27 ST,40.745283,-73.990927,13.0
409,0,M55,400732,26,AV OF THE AMERICAS/W 29 ST,40.746542,-73.990097,13.0
458,0,M2,404120,4,UNION SQ E/E 15 ST,40.73555,-73.989612,13.0
459,0,M2,403782,7,PARK AV S/E 23 ST,40.740471,-73.985939,13.0
460,0,M2,405380,9,MADISON AV/E 28 ST,40.744189,-73.985425,13.0
491,0,M2,404936,5,PARK AV S/E 18 ST,40.736788,-73.988625,13.0
492,0,M2,400007,6,PARK AV S/E 21 ST,40.738976,-73.987053,13.0
493,0,M2,403316,8,E 25 ST/PARK AV S,40.741564,-73.985493,13.0
516,0,M1,404120,9,UNION SQ E/E 15 ST,40.73555,-73.989612,13.0
517,0,M1,403782,12,PARK AV S/E 23 ST,40.740471,-73.985939,13.0
518,0,M1,405380,14,MADISON AV/E 28 ST,40.744189,-73.985425,13.0
531,0,M1,404936,10,PARK AV S/E 18 ST,40.736788,-73.988625,13.0
532,0,M1,400007,11,PARK AV S/E 21 ST,40.738976,-73.987053,13.0
533,0,M1,403316,13,E 25 ST/PARK AV S,40.741564,-73.985493,13.0
582,0,M3,404120,4,UNION SQ E/E 15 ST,40.73555,-73.989612,13.0
583,0,M3,403782,7,PARK AV S/E 23 ST,40.740471,-73.985939,13.0
584,0,M3,405380,9,MADISON AV/E 28 ST,40.744189,-73.985425,13.0
601,0,M3,404936,5,PARK AV S/E 18 ST,40.736788,-73.988625,13.0
602,0,M3,400007,6,PARK AV S/E 21 ST,40.738976,-73.987053,13.0
603,0,M3,403316,8,E 25 ST/PARK AV S,40.741564,-73.985493,13.0
654,0,M34+,401832,13,E 23 ST/2 AV,40.737663,-73.980554,13.0
666,0,M34+,405336,12,2 AV/E 28 ST,40.741114,-73.978641,13.0
667,0,M34+,401833,14,E 23 ST/1 AV,40.736691,-73.978245,13.0
668,0,M34+,402052,15,E 23 ST/AV C,40.7355,-73.975374,13.0
669,0,M34+,903027,16,WATERSIDE/WATERSIDE,40.737552,-73.973846,13.0
670,0,M34A+,401832,12,E 23 ST/2 AV,40.737663,-73.980554,13.0
679,0,M34A+,405336,11,2 AV/E 28 ST,40.741114,-73.978641,13.0
680,0,M34A+,401833,13,E 23 ST/1 AV,40.736691,-73.978245,13.0
681,0,M34A+,402052,14,E 23 ST/AV C,40.7355,-73.975374,13.0
682,0,M34A+,903027,15,WATERSIDE/WATERSIDE,40.737552,-73.973846,13.0
685,0,M23+,401832,12,E 23 ST/2 AV,40.737663,-73.980554,13.0
686,0,M23+,404264,14,AV C/E 23 ST,40.735175,-73.975191,13.0
687,0,M23+,401833,13,E 23 ST/1 AV,40.736691,-73.978245,13.0
694,0,M23+,402127,7,W 23 ST/7 AV,40.743952,-73.995493,13.0
695,0,M23+,402128,8,W 23 ST/6 AV,40.74236,-73.991763,13.0
696,0,M23+,402130,9,E 23 ST/BROADWAY,40.741142,-73.98879,13.0
697,0,M23+,402132,10,E 23 ST/PARK AV S,40.739922,-73.985994,13.0
698,0,M23+,402134,11,E 23 ST/3 AV,40.738589,-73.982755,13.0
699,0,M23+,903002,15,AV C/E 20 ST,40.733004,-73.974597,13.0
719,0,M103,403913,13,3 AV/E 14 ST,40.733689,-73.986787,13.0
720,0,M103,402670,14,3 AV/E 17 ST,40.735511,-73.985465,13.0
721,0,M103,405061,15,3 AV/E 21 ST,40.737436,-73.984124,13.0
722,0,M103,403855,16,3 AV/E 23 ST,40.739218,-73.982771,13.0
723,0,M103,402673,17,3 AV/E 26 ST,40.741067,-73.981419,13.0
724,0,M103,402674,18,3 AV/E 29 ST,40.742894,-73.980105,13.0
755,0,M7,400726,1,AV OF THE AMERICAS/W 15 ST,40.738103,-73.99621,13.0
756,0,M7,404991,2,AV OF THE AMERICAS/W 18 ST,40.739588,-73.995074,13.0
757,0,M7,403914,3,AV OF THE AMERICAS/W 20 ST,40.741155,-73.993876,13.0
758,0,M7,400929,4,AV OF THE AMERICAS/W 23 ST,40.743027,-73.992644,13.0
759,0,M7,400731,5,AV OF THE AMERICAS/W 27 ST,40.745283,-73.990927,13.0
760,0,M7,400732,6,AV OF THE AMERICAS/W 29 ST,40.746542,-73.990097,13.0
1153,0,M101,403913,4,3 AV/E 14 ST,40.733689,-73.986787,13.0
1154,0,M101,402670,5,3 AV/E 17 ST,40.735511,-73.985465,13.0
1155,0,M101,405061,6,3 AV/E 21 ST,40.737436,-73.984124,13.0
1156,0,M101,403855,7,3 AV/E 23 ST,40.739218,-73.982771,13.0
1157,0,M101,402673,8,3 AV/E 26 ST,40.741067,-73.981419,13.0
1158,0,M101,402674,9,3 AV/E 29 ST,40.742894,-73.980105,13.0
1283,0,M102,403913,4,3 AV/E 14 ST,40.733689,-73.986787,13.0
1284,0,M102,402670,5,3 AV/E 17 ST,40.735511,-73.985465,13.0
1285,0,M102,405061,6,3 AV/E 21 ST,40.737436,-73.984124,13.0
1286,0,M102,403855,7,3 AV/E 23 ST,40.739218,-73.982771,13.0
1287,0,M102,402673,8,3 AV/E 26 ST,40.741067,-73.981419,13.0
1288,0,M102,402674,9,3 AV/E 29 ST,40.742894,-73.980105,13.0
1511,1,M15+,403525,13,2 AV/E 28 ST,40.74097,-73.978757,13.0
1512,1,M15+,401779,14,2 AV/E 23 ST,40.737516,-73.981202,13.0
1522,1,M15,405336,37,2 AV/E 28 ST,40.741114,-73.978641,13.0
1530,1,M15,401779,39,2 AV/E 23 ST,40.737516,-73.981202,13.0
1564,1,M15,401778,38,2 AV/E 25 ST,40.738933,-73.980226,13.0
1565,1,M15,401780,40,2 AV/E 20 ST,40.735746,-73.982489,13.0
1566,1,M15,401781,41,2 AV/E 17 ST,40.733996,-73.983769,13.0
1567,1,M15,401782,42,2 AV/E 14 ST,40.732494,-73.984903,13.0
1617,1,M14A+,404029,12,E 14 ST/1 AV,40.73115,-73.981962,13.0
1618,1,M14A+,403870,13,E 14 ST/2 AV,40.732484,-73.985195,13.0
1619,1,M14A+,403871,14,E 14 ST/3 AV,40.733546,-73.98758,13.0
1620,1,M14A+,403906,15,E 14 ST/4 AV,40.734417,-73.989702,13.0
1621,1,M14A+,403893,16,E 14 ST/UNION SQ W,40.735465,-73.992137,13.0
1622,1,M14A+,403894,17,W 14 ST/5 AV,40.736229,-73.993956,13.0
1623,1,M14A+,403895,18,W 14 ST/6 AV,40.737664,-73.997362,13.0
1632,1,M9,405396,1,1 AV/E 27 ST,40.739627,-73.976496,13.0
1633,1,M9,402048,2,E 29 ST/1 AV,40.740788,-73.975905,13.0
1634,1,M9,402049,3,E 29 ST/2 AV,40.741591,-73.977915,13.0
1635,1,M9,401832,4,E 23 ST/2 AV,40.737663,-73.980554,13.0
1636,1,M9,405390,5,E 23 ST/1 AV,40.736864,-73.978704,13.0
1637,1,M9,404264,6,AV C/E 23 ST,40.735175,-73.975191,13.0
1638,1,M9,402054,7,AV C/E 20 ST,40.732795,-73.974542,13.0
1639,1,M9,402055,8,AV C/E 18 ST,40.731266,-73.974185,13.0
1640,1,M9,402056,9,AV C/E 16 ST,40.730031,-73.974881,13.0
1641,1,M9,402057,10,AV C/E 14 ST,40.729142,-73.975473,13.0
1723,1,M14D+,404029,10,E 14 ST/1 AV,40.73115,-73.981962,13.0
1724,1,M14D+,403870,11,E 14 ST/2 AV,40.732484,-73.985195,13.0
1725,1,M14D+,403871,12,E 14 ST/3 AV,40.733546,-73.98758,13.0
1726,1,M14D+,403906,13,E 14 ST/4 AV,40.734417,-73.989702,13.0
1727,1,M14D+,403893,14,E 14 ST/UNION SQ W,40.735465,-73.992137,13.0
1728,1,M14D+,403894,15,W 14 ST/5 AV,40.736229,-73.993956,13.0
1729,1,M14D+,403895,16,W 14 ST/6 AV,40.737664,-73.997362,13.0
1734,1,M14D+,401633,7,E 14 ST/AV C,40.72861,-73.975909,13.0
1735,1,M14D+,401182,8,E 14 ST/AV B,40.729403,-73.977825,13.0
1752,1,M55,400326,7,5 AV/W 29 ST,40.745072,-73.987134,13.0
1753,1,M55,400327,8,5 AV/W 26 ST,40.743132,-73.988487,13.0
1754,1,M55,400329,9,5 AV/W 23 ST,40.74124,-73.990062,13.0
1755,1,M55,400330,10,5 AV/W 20 ST,40.739407,-73.99126,13.0
1756,1,M55,400331,11,5 AV/W 17 ST,40.73767,-73.992523,13.0
1806,1,M2,400326,63,5 AV/W 29 ST,40.745072,-73.987134,13.0
1807,1,M2,400327,64,5 AV/W 26 ST,40.743132,-73.988487,13.0
1808,1,M2,400329,65,5 AV/W 23 ST,40.74124,-73.990062,13.0
1809,1,M2,400330,66,5 AV/W 20 ST,40.739407,-73.99126,13.0
1810,1,M2,400331,67,5 AV/W 17 ST,40.73767,-73.992523,13.0
1880,1,M1,400326,49,5 AV/W 29 ST,40.745072,-73.987134,13.0
1881,1,M1,400327,50,5 AV/W 26 ST,40.743132,-73.988487,13.0
1882,1,M1,400329,51,5 AV/W 23 ST,40.74124,-73.990062,13.0
1883,1,M1,400330,52,5 AV/W 20 ST,40.739407,-73.99126,13.0
1884,1,M1,400331,53,5 AV/W 17 ST,40.73767,-73.992523,13.0
1945,1,M3,400326,70,5 AV/W 29 ST,40.745072,-73.987134,13.0
1946,1,M3,400327,71,5 AV/W 26 ST,40.743132,-73.988487,13.0
1947,1,M3,400329,72,5 AV/W 23 ST,40.74124,-73.990062,13.0
1948,1,M3,400330,73,5 AV/W 20 ST,40.739407,-73.99126,13.0
1949,1,M3,400331,74,5 AV/W 17 ST,40.73767,-73.992523,13.0
2019,1,M34+,401857,1,WATERSIDE/WATERSIDE 1,40.738058,-73.973463,13.0
2020,1,M34+,401858,2,WATERSIDE/WATERSIDE 2,40.739144,-73.972885,13.0
2036,1,M34A+,401857,1,WATERSIDE/WATERSIDE 1,40.738058,-73.973463,13.0
2037,1,M34A+,401858,2,WATERSIDE/WATERSIDE 2,40.739144,-73.972885,13.0
2048,1,M23+,402054,1,AV C/E 20 ST,40.732795,-73.974542,13.0
2049,1,M23+,404099,2,E 20 ST/E 20 ST Loop,40.734053,-73.97755,13.0
2050,1,M23+,402142,3,E 20 ST/1 AV,40.73495,-73.979534,13.0
2051,1,M23+,402143,4,E 23 ST/1 AV,40.737297,-73.97936,13.0
2052,1,M23+,402144,5,E 23 ST/2 AV,40.738311,-73.981712,13.0
2053,1,M23+,402145,6,E 23 ST/3 AV,40.739027,-73.983456,13.0
2054,1,M23+,404833,7,E 23 ST/PARK AV S,40.740491,-73.986847,13.0
2055,1,M23+,405231,8,E 23 ST/BROADWAY,40.741351,-73.989013,13.0
2056,1,M23+,402152,9,W 23 ST/AV OF THE AMERICAS,40.743101,-73.993064,13.0
2102,1,M103,402851,39,LEXINGTON AV/E 28 ST,40.742375,-73.982721,13.0
2103,1,M103,402852,40,LEXINGTON AV/E 26 ST,40.741117,-73.983648,13.0
2104,1,M103,405272,41,EAST 24 ST/LEXINGTON AV,40.739992,-73.984009,13.0
2105,1,M103,402854,42,3 AV/E 23 ST,40.738982,-73.983129,13.0
2106,1,M103,403772,43,3 AV/E 20 ST,40.736709,-73.984763,13.0
2107,1,M103,402856,44,3 AV/E 17 ST,40.73487,-73.986103,13.0
2176,1,M7,903176,56,AV OF THE AMERICAS/W 14 ST,40.737404,-73.996752,13.0
2538,1,M101,402851,72,LEXINGTON AV/E 28 ST,40.742375,-73.982721,13.0
2539,1,M101,402852,73,LEXINGTON AV/E 26 ST,40.741117,-73.983648,13.0
2540,1,M101,405272,74,EAST 24 ST/LEXINGTON AV,40.739992,-73.984009,13.0
2541,1,M101,402854,75,3 AV/E 23 ST,40.738982,-73.983129,13.0
2542,1,M101,403772,76,3 AV/E 20 ST,40.736709,-73.984763,13.0
2543,1,M101,402856,77,3 AV/E 17 ST,40.73487,-73.986103,13.0
2669,1,M102,402851,51,LEXINGTON AV/E 28 ST,40.742375,-73.982721,13.0
2670,1,M102,402852,52,LEXINGTON AV/E 26 ST,40.741117,-73.983648,13.0
2671,1,M102,405272,53,EAST 24 ST/LEXINGTON AV,40.739992,-73.984009,13.0
2672,1,M102,402854,54,3 AV/E 23 ST,40.738982,-73.983129,13.0
2673,1,M102,403772,55,3 AV/E 20 ST,40.736709,-73.984763,13.0
2674,1,M102,402856,56,3 AV/E 17 ST,40.73487,-73.986103,13.0
170,0,M15+,903102,17,1 AV/ E 97 ST,40.784225,-73.943936,23.0
171,0,M15+,401723,18,1 AV/E 106 ST,40.789858,-73.939854,23.0
194,0,M15,401723,52,1 AV/E 106 ST,40.789858,-73.939854,23.0
228,0,M15,903275,49,1 AV/E 97 ST,40.783781,-73.944277,23.0
229,0,M15,401721,50,1 AV/E 99 ST,40.785414,-73.943097,23.0
230,0,M15,401722,51,1 AV/E 102 ST,40.787357,-73.941682,23.0
231,0,M15,401724,53,1 AV/E 108 ST,40.791692,-73.938512,23.0
232,0,M15,401725,54,1 AV/E 111 ST,40.793101,-73.937481,23.0
233,0,M15,401726,55,1 AV/E 113 ST,40.79433,-73.936584,23.0
439,0,M2,400041,35,MADISON AV/E 98 ST,40.788413,-73.95318,23.0
440,0,M2,400042,36,MADISON AV/E 101 ST,40.790304,-73.951799,23.0
441,0,M2,400043,37,MADISON AV/E 102 ST,40.791371,-73.951022,23.0
442,0,M2,400044,38,MADISON AV/E 104 ST,40.792159,-73.950447,23.0
443,0,M2,400045,39,MADISON AV/E 106 ST,40.793434,-73.949511,23.0
470,0,M2,400046,40,MADISON AV/E 107 ST,40.794551,-73.948694,23.0
471,0,M2,404856,41,E 110 ST/MADISON AV,40.796412,-73.948038,23.0
510,0,M1,400041,40,MADISON AV/E 98 ST,40.788413,-73.95318,23.0
511,0,M1,400042,41,MADISON AV/E 101 ST,40.790304,-73.951799,23.0
512,0,M1,400043,42,MADISON AV/E 102 ST,40.791371,-73.951022,23.0
513,0,M1,400044,43,MADISON AV/E 104 ST,40.792159,-73.950447,23.0
514,0,M1,400045,44,MADISON AV/E 106 ST,40.793434,-73.949511,23.0
528,0,M1,400046,45,MADISON AV/E 107 ST,40.794551,-73.948694,23.0
549,0,M1,400047,46,MADISON AV/E 109 ST,40.795813,-73.947779,23.0
550,0,M1,400048,47,MADISON AV/E 112 ST,40.797494,-73.946553,23.0
551,0,M1,404103,48,MADISON AV/E 114 ST,40.798491,-73.945816,23.0
576,0,M3,400041,35,MADISON AV/E 98 ST,40.788413,-73.95318,23.0
577,0,M3,400042,36,MADISON AV/E 101 ST,40.790304,-73.951799,23.0
578,0,M3,400043,37,MADISON AV/E 102 ST,40.791371,-73.951022,23.0
579,0,M3,400044,38,MADISON AV/E 104 ST,40.792159,-73.950447,23.0
580,0,M3,400045,39,MADISON AV/E 106 ST,40.793434,-73.949511,23.0
594,0,M3,400046,40,MADISON AV/E 107 ST,40.794551,-73.948694,23.0
595,0,M3,404856,41,E 110 ST/MADISON AV,40.796412,-73.948038,23.0
704,0,M103,403777,43,3 AV/E 97 ST,40.785746,-73.948862,23.0
705,0,M103,403436,47,3 AV/E 106 ST,40.79189,-73.944367,23.0
745,0,M103,401946,44,3 AV/E 99 ST,40.787906,-73.947273,23.0
746,0,M103,401947,45,3 AV/E 102 ST,40.789273,-73.946287,23.0
747,0,M103,401948,46,3 AV/E 104 ST,40.79054,-73.945358,23.0
748,0,M103,402704,48,3 AV/E 109 ST,40.793765,-73.943005,23.0
749,0,M103,402705,49,3 AV/E 112 ST,40.795775,-73.941518,23.0
1005,0,M4,400041,26,MADISON AV/E 98 ST,40.788413,-73.95318,23.0
1006,0,M4,400042,27,MADISON AV/E 101 ST,40.790304,-73.951799,23.0
1007,0,M4,400043,28,MADISON AV/E 102 ST,40.791371,-73.951022,23.0
1008,0,M4,400044,29,MADISON AV/E 104 ST,40.792159,-73.950447,23.0
1009,0,M4,400045,30,MADISON AV/E 106 ST,40.793434,-73.949511,23.0
1025,0,M4,400046,31,MADISON AV/E 107 ST,40.794551,-73.948694,23.0
1026,0,M4,404856,32,E 110 ST/MADISON AV,40.796412,-73.948038,23.0
1142,0,M101,403777,34,3 AV/E 97 ST,40.785746,-73.948862,23.0
1143,0,M101,403436,38,3 AV/E 106 ST,40.79189,-73.944367,23.0
1179,0,M101,401946,35,3 AV/E 99 ST,40.787906,-73.947273,23.0
1180,0,M101,401947,36,3 AV/E 102 ST,40.789273,-73.946287,23.0
1181,0,M101,401948,37,3 AV/E 104 ST,40.79054,-73.945358,23.0
1182,0,M101,402704,39,3 AV/E 109 ST,40.793765,-73.943005,23.0
1183,0,M101,402705,40,3 AV/E 112 ST,40.795775,-73.941518,23.0
1218,0,M106,400041,7,MADISON AV/E 98 ST,40.788413,-73.95318,23.0
1219,0,M106,400042,8,MADISON AV/E 101 ST,40.790304,-73.951799,23.0
1220,0,M106,400043,9,MADISON AV/E 102 ST,40.791371,-73.951022,23.0
1221,0,M106,400044,10,MADISON AV/E 104 ST,40.792159,-73.950447,23.0
1222,0,M106,400045,11,MADISON AV/E 106 ST,40.793434,-73.949511,23.0
1223,0,M106,404076,12,E 106 ST/LEXINGTON AV,40.792011,-73.945969,23.0
1224,0,M106,404077,13,E 106 ST/3 AV,40.791324,-73.944338,23.0
1225,0,M106,401950,14,E 106 ST/2 AV,40.790384,-73.94211,23.0
1226,0,M106,401951,15,E 106 ST/1 AV,40.789401,-73.939775,23.0
1227,0,M106,803066,16,E 105 ST/FDR DR,40.788214,-73.938425,23.0
1238,0,M96,903003,11,E 97 ST/1 AV,40.78421,-73.944775,23.0
1243,0,M98,403777,5,3 AV/E 97 ST,40.785746,-73.948862,23.0
1244,0,M98,403436,6,3 AV/E 106 ST,40.79189,-73.944367,23.0
1261,0,M102,403777,34,3 AV/E 97 ST,40.785746,-73.948862,23.0
1262,0,M102,403436,38,3 AV/E 106 ST,40.79189,-73.944367,23.0
1309,0,M102,401946,35,3 AV/E 99 ST,40.787906,-73.947273,23.0
1310,0,M102,401947,36,3 AV/E 102 ST,40.789273,-73.946287,23.0
1311,0,M102,401948,37,3 AV/E 104 ST,40.79054,-73.945358,23.0
1312,0,M102,402704,39,3 AV/E 109 ST,40.793765,-73.943005,23.0
1313,0,M102,402705,40,3 AV/E 112 ST,40.795775,-73.941518,23.0
1501,1,M15+,405348,3,2 AV/E 115 ST,40.795919,-73.93877,23.0
1502,1,M15+,405347,4,2 AV/E 106 ST,40.79086,-73.942431,23.0
1538,1,M15,401742,6,2 AV/E 113 ST,40.794823,-73.939429,23.0
1539,1,M15,803228,7,2 AV/E 111 ST,40.793625,-73.940328,23.0
1540,1,M15,401744,8,2 AV/E 108 ST,40.791673,-73.941736,23.0
1541,1,M15,401745,9,2 AV/E 106 ST,40.790331,-73.942715,23.0
1542,1,M15,401746,10,2 AV/103 ST,40.788563,-73.944015,23.0
1543,1,M15,401747,11,2 AV/E 101 ST,40.787352,-73.944893,23.0
1544,1,M15,401748,12,2 AV/E 97 ST,40.785065,-73.946555,23.0
2066,1,M103,403417,8,LEXINGTON AV/E 106 ST,40.791892,-73.946585,23.0
2074,1,M103,402809,6,LEXINGTON AV/E 114 ST,40.797178,-73.942746,23.0
2075,1,M103,402811,7,LEXINGTON AV/E 110 ST,40.794544,-73.944667,23.0
2076,1,M103,401973,9,LEXINGTON AV/E 104 ST,40.79057,-73.947556,23.0
2077,1,M103,401974,10,LEXINGTON AV/E 102 ST,40.789366,-73.948437,23.0
2078,1,M103,402816,11,LEXINGTON AV/E 100 ST,40.78827,-73.949209,23.0
2079,1,M103,403749,12,LEXINGTON AV/E 98 ST,40.787269,-73.949971,23.0
2497,1,M101,403417,41,LEXINGTON AV/E 106 ST,40.791892,-73.946585,23.0
2510,1,M101,402809,39,LEXINGTON AV/E 114 ST,40.797178,-73.942746,23.0
2511,1,M101,402811,40,LEXINGTON AV/E 110 ST,40.794544,-73.944667,23.0
2512,1,M101,401973,42,LEXINGTON AV/E 104 ST,40.79057,-73.947556,23.0
2513,1,M101,401974,43,LEXINGTON AV/E 102 ST,40.789366,-73.948437,23.0
2514,1,M101,402816,44,LEXINGTON AV/E 100 ST,40.78827,-73.949209,23.0
2515,1,M101,403749,45,LEXINGTON AV/E 98 ST,40.787269,-73.949971,23.0
2573,1,M106,403326,1,E 105 ST/FDR  DR,40.788277,-73.93884,23.0
2574,1,M106,401968,2,E 105 ST/1 AV,40.788901,-73.940313,23.0
2575,1,M106,401969,3,E 106 ST/1 AV,40.789898,-73.940478,23.0
2576,1,M106,401970,4,E 106 ST/2 AV,40.790769,-73.942597,23.0
2577,1,M106,401971,5,E 106 ST/3 AV,40.791597,-73.944502,23.0
2578,1,M106,404079,6,E 106 ST/LEXINGTON AV,40.792464,-73.946569,23.0
2579,1,M106,404080,7,E 106 ST/MADISON AV,40.793835,-73.949832,23.0
2596,1,M96,401954,1,E 97 ST/1 AV,40.784528,-73.945491,23.0
2597,1,M96,401955,2,E 97 ST/2 AV,40.784894,-73.946279,23.0
2598,1,M96,403632,3,E 96 ST/2 AV,40.784335,-73.94722,23.0
2599,1,M96,401957,4,E 96 ST/3 AV,40.785357,-73.949465,23.0
2600,1,M96,401958,5,E 96 ST/LEXINGTON AV,40.786099,-73.951246,23.0
2601,1,M96,401960,6,E 96 ST/MADISON AV,40.787241,-73.953875,23.0
2602,1,M96,401961,7,E 97 ST/5 AV,40.788581,-73.955047,23.0
2614,1,M98,403417,12,LEXINGTON AV/E 106 ST,40.791892,-73.946585,23.0
2621,1,M102,403417,20,LEXINGTON AV/E 106 ST,40.791892,-73.946585,23.0
2641,1,M102,402809,18,LEXINGTON AV/E 114 ST,40.797178,-73.942746,23.0
2642,1,M102,402811,19,LEXINGTON AV/E 110 ST,40.794544,-73.944667,23.0
2643,1,M102,401973,21,LEXINGTON AV/E 104 ST,40.79057,-73.947556,23.0
2644,1,M102,401974,22,LEXINGTON AV/E 102 ST,40.789366,-73.948437,23.0
2645,1,M102,402816,23,LEXINGTON AV/E 100 ST,40.78827,-73.949209,23.0
2646,1,M102,403749,24,LEXINGTON AV/E 98 ST,40.787269,-73.949971,23.0
444,0,M2,400241,59,ADAM C POWELL BL/W 145 ST,40.821878,-73.938687,32.0
445,0,M2,400242,60,ADAM C POWELL BL/W 147 ST,40.823105,-73.937789,32.0
446,0,M2,404129,61,ADAM C POWELL BL/W 149 ST,40.82426,-73.936943,32.0
447,0,M2,403338,62,ADAM C POWELL BL/W 151 ST,40.825612,-73.935955,32.0
448,0,M2,404837,63,ADAM C POWELL BL/W 153 ST,40.826531,-73.935264,32.0
481,0,M2,400233,51,ADAM C POWELL BL/W 127 ST,40.810475,-73.947009,32.0
482,0,M2,400234,52,ADAM C POWELL BL/W 129 ST,40.811718,-73.946105,32.0
483,0,M2,400236,53,ADAM C POWELL BL/W 133 ST,40.81419,-73.9443,32.0
484,0,M2,400237,54,ADAM C POWELL BL/W 135 ST,40.815549,-73.943309,32.0
485,0,M2,400227,55,ADAM C POWELL BL/W 137 ST,40.816789,-73.942405,32.0
486,0,M2,400238,56,ADAM C POWELL BL/W 139 ST,40.818034,-73.94149,32.0
487,0,M2,400239,57,ADAM C POWELL BL/W 141 ST,40.819296,-73.940571,32.0
488,0,M2,400240,58,ADAM C POWELL BL/W 143 ST,40.820515,-73.939681,32.0
563,0,M1,400061,60,W 139 ST/5 AV,40.815616,-73.936283,32.0
564,0,M1,400062,61,MALCOLM X BL/W 139 ST,40.81694,-73.938615,32.0
565,0,M1,404335,62,MALCOLM X BL/W 142 ST,40.818795,-73.937266,32.0
566,0,M1,400065,63,MALCOLM X BL/W 145 ST,40.82068,-73.935873,32.0
567,0,M1,400066,64,W 147 ST/MALCOLM X BL,40.821952,-73.935729,32.0
568,0,M1,400067,65,W 147 ST/ADAM C POWELL BL,40.822853,-73.937867,32.0
569,0,M1,803003,66,146 ST/LENOX AV,40.821204,-73.936042,32.0
620,0,M3,400398,52,ST NICHOLAS AV/W 127 ST,40.812206,-73.951155,32.0
621,0,M3,400399,53,ST NICHOLAS AV/W 130 ST,40.814014,-73.949575,32.0
622,0,M3,400400,54,ST NICHOLAS AV/W 133 ST,40.815562,-73.948647,32.0
623,0,M3,400401,55,ST NICHOLAS AV/W 135 ST,40.81728,-73.947885,32.0
624,0,M3,403776,56,ST NICHOLAS AV/W 137 ST,40.818358,-73.94731,32.0
625,0,M3,400403,57,ST NICHOLAS AV/W 139 ST,40.82015,-73.946481,32.0
626,0,M3,400404,58,ST NICHOLAS AV/W 141 ST,40.821124,-73.946034,32.0
802,0,M7,400062,58,MALCOLM X BL/W 139 ST,40.81694,-73.938615,32.0
803,0,M7,404335,59,MALCOLM X BL/W 142 ST,40.818795,-73.937266,32.0
804,0,M7,400065,60,MALCOLM X BL/W 145 ST,40.82068,-73.935873,32.0
805,0,M7,400066,61,W 147 ST/MALCOLM X BL,40.821952,-73.935729,32.0
806,0,M7,400067,62,W 147 ST/ADAM C POWELL BL,40.822853,-73.937867,32.0
807,0,M7,803003,63,146 ST/LENOX AV,40.821204,-73.936042,32.0
812,0,M7,401051,53,MALCOLM X BL/W 127 ST,40.809382,-73.944138,32.0
813,0,M7,401052,54,MALCOLM X BL/W 129 ST,40.810635,-73.943223,32.0
814,0,M7,405014,55,MALCOLM X BL/W 132 ST,40.812501,-73.941856,32.0
815,0,M7,401055,56,MALCOLM X BL/W 135 ST,40.813931,-73.940833,32.0
816,0,M7,401056,57,MALCOLM X BL/W 137 ST,40.81575,-73.939483,32.0
908,0,M10,401274,31,FRED DOUGLASS BL/W 127 ST,40.811747,-73.949887,32.0
909,0,M10,401275,32,FRED DOUGLASS BL/W 129 ST,40.812894,-73.949048,32.0
910,0,M10,401276,33,FRED DOUGLASS BL/W 131 ST,40.81414,-73.948137,32.0
911,0,M10,401277,34,FRED DOUGLASS BL/W 133 ST,40.815432,-73.94719,32.0
912,0,M10,403982,35,FRED DOUGLASS BL/W 135 ST,40.816771,-73.946213,32.0
913,0,M10,403832,36,FRED DOUGLASS BL/W 138 ST,40.818645,-73.944849,32.0
914,0,M10,401281,37,FRED DOUGLASS BL/W 141 ST,40.820541,-73.943464,32.0
915,0,M10,401282,38,FRED DOUGLASS BL/W 143 ST,40.821759,-73.942574,32.0
916,0,M10,403826,39,FRED DOUGLASS BL/W 145 ST,40.82312,-73.941579,32.0
917,0,M10,404825,40,FRED DOUGLASS BL/W 148 ST,40.824928,-73.940255,32.0
918,0,M10,404325,41,FRED DOUGLASS BL/MACOMBS PL,40.825817,-73.939658,32.0
919,0,M10,401286,42,FRED DOUGLASS BL/W 153 ST,40.82813,-73.937918,32.0
920,0,M10,401287,43,FRED DOUGLASS BL/W 155 ST,40.829277,-73.937054,32.0
921,0,M10,401288,44,FRED DOUGLASS BL/W 158 ST,40.831209,-73.935693,32.0
1267,0,M102,400062,55,MALCOLM X BL/W 139 ST,40.81694,-73.938615,32.0
1268,0,M102,404335,56,MALCOLM X BL/W 142 ST,40.818795,-73.937266,32.0
1269,0,M102,400065,57,MALCOLM X BL/W 145 ST,40.82068,-73.935873,32.0
1270,0,M102,400066,58,W 147 ST/MALCOLM X BL,40.821952,-73.935729,32.0
1271,0,M102,400067,59,W 147 ST/ADAM C POWELL BL,40.822853,-73.937867,32.0
1276,0,M102,401051,50,MALCOLM X BL/W 127 ST,40.809382,-73.944138,32.0
1277,0,M102,401052,51,MALCOLM X BL/W 129 ST,40.810635,-73.943223,32.0
1278,0,M102,405014,52,MALCOLM X BL/W 132 ST,40.812501,-73.941856,32.0
1279,0,M102,401055,53,MALCOLM X BL/W 135 ST,40.813931,-73.940833,32.0
1280,0,M102,401056,54,MALCOLM X BL/W 137 ST,40.81575,-73.939483,32.0
1315,0,M102,803024,60,W 146 ST/MALCOLM X  BL,40.821199,-73.936118,32.0
1830,1,M2,400271,11,ADAM C POWELL BL/W 154 ST,40.827305,-73.935386,32.0
1831,1,M2,400272,12,ADAM C POWELL BL/W 151 ST,40.826047,-73.936048,32.0
1832,1,M2,400273,13,ADAM C POWELL BL/W 149 ST,40.824628,-73.937101,32.0
1833,1,M2,400274,14,ADAM C POWELL BL/W 148 ST,40.823366,-73.938028,32.0
1834,1,M2,400275,15,ADAM C POWELL BL/W 145 ST,40.821387,-73.939471,32.0
1835,1,M2,400276,16,ADAM C POWELL BL/W 142 ST,40.819535,-73.94082,32.0
1836,1,M2,400277,17,ADAM C POWELL BL/W 140 ST,40.818303,-73.941721,32.0
1837,1,M2,400278,18,ADAM C POWELL BL/W 138 ST,40.817028,-73.942661,32.0
1838,1,M2,400279,19,ADAM C POWELL BL/W 135 ST,40.815277,-73.943909,32.0
1839,1,M2,400280,20,ADAM C POWELL BL/W 132 ST,40.813155,-73.945461,32.0
1840,1,M2,400281,21,ADAM C POWELL BL/W 130 ST,40.812037,-73.946257,32.0
1841,1,M2,400282,22,ADAM C POWELL BL/W 128 ST,40.810701,-73.947255,32.0
1921,1,M1,405284,1,MALCOLM X BL/W 146 ST,40.821082,-73.935896,32.0
1922,1,M1,400088,2,MALCOLM X BL/W 145 ST,40.820359,-73.93646,32.0
1923,1,M1,400089,3,MALCOLM X BL/W 142 ST,40.818247,-73.938003,32.0
1924,1,M1,400091,4,W 139 ST/MALCOLM X BL,40.816381,-73.938746,32.0
1925,1,M1,400092,5,5 AV/W 138 ST,40.815202,-73.93598,32.0
1926,1,M1,400093,6,5 AV/W 137 ST,40.813791,-73.937003,32.0
1927,1,M1,400094,7,5 AV/W 135 ST,40.812365,-73.938045,32.0
1928,1,M1,400095,8,5 AV/W 132 ST,40.81062,-73.939282,32.0
1929,1,M1,400096,9,5 AV/W 130 ST,40.809347,-73.940208,32.0
1930,1,M1,400097,10,5 AV/W 128 ST,40.808076,-73.941141,32.0
2163,1,M7,400088,2,MALCOLM X BL/W 145 ST,40.820359,-73.93646,32.0
2164,1,M7,400089,3,MALCOLM X BL/W 142 ST,40.818247,-73.938003,32.0
2165,1,M7,400087,1,W 146 ST/MALCOLM X BL,40.821178,-73.935956,32.0
2166,1,M7,404339,4,MALCOLM X BL/W 139 ST,40.816345,-73.939396,32.0
2167,1,M7,404338,5,MALCOLM X BL/W 137 ST,40.81508,-73.940329,32.0
2168,1,M7,401069,6,MALCOLM X BL/W 135 ST,40.813711,-73.94132,32.0
2169,1,M7,401070,7,MALCOLM X BL/W 132 ST,40.811953,-73.942601,32.0
2170,1,M7,404337,8,MALCOLM X BL/W 129 ST,40.810005,-73.944029,32.0
2240,1,M10,404135,1,FRED DOUGLASS BL/W 158 ST,40.830954,-73.93599,32.0
2241,1,M10,401305,2,FRED DOUGLASS BL/W 155 ST,40.829091,-73.937451,32.0
2242,1,M10,401306,3,FRED DOUGLASS BL/W 154 ST,40.828306,-73.938048,32.0
2243,1,M10,401307,4,FRED DOUGLASS BL/W 152 ST,40.827019,-73.938993,32.0
2244,1,M10,401308,5,FRED DOUGLASS BL/W 150 ST,40.825949,-73.939723,32.0
2245,1,M10,404824,6,FRED DOUGLASS BL/W 147 ST,40.823913,-73.941264,32.0
2246,1,M10,401310,7,FRED DOUGLASS BL/W 145 ST,40.822522,-73.942285,32.0
2247,1,M10,401311,8,FRED DOUGLASS BL/W 142 ST,40.820659,-73.943641,32.0
2248,1,M10,401312,9,FRED DOUGLASS BL/W 140 ST,40.819419,-73.944553,32.0
2249,1,M10,401313,10,FRED DOUGLASS BL/W 138 ST,40.818185,-73.94545,32.0
2250,1,M10,401314,11,FRED DOUGLASS BL/W 135 ST,40.816206,-73.946889,32.0
2251,1,M10,401315,12,FRED DOUGLASS BL/W 133 ST,40.814919,-73.947829,32.0
2252,1,M10,401317,13,FRED DOUGLASS BL/W 129 ST,40.812828,-73.949339,32.0
2253,1,M10,403276,14,FRED DOUGLASS BL/W 128 ST,40.811896,-73.950046,32.0
2629,1,M102,400088,2,MALCOLM X BL/W 145 ST,40.820359,-73.93646,32.0
2630,1,M102,400089,3,MALCOLM X BL/W 142 ST,40.818247,-73.938003,32.0
2631,1,M102,400087,1,W 146 ST/MALCOLM X BL,40.821178,-73.935956,32.0
2632,1,M102,404339,4,MALCOLM X BL/W 139 ST,40.816345,-73.939396,32.0
2633,1,M102,404338,5,MALCOLM X BL/W 137 ST,40.81508,-73.940329,32.0
2634,1,M102,401069,6,MALCOLM X BL/W 135 ST,40.813711,-73.94132,32.0
2635,1,M102,401070,7,MALCOLM X BL/W 132 ST,40.811953,-73.942601,32.0
2636,1,M102,404337,8,MALCOLM X BL/W 129 ST,40.810005,-73.944029,32.0
472,0,M2,403267,42,CENTRAL PK N/5 AV,40.797182,-73.949152,28.0
473,0,M2,400224,43,CENTRAL PK N/MALCOLM X BL,40.798395,-73.952601,28.0
474,0,M2,400225,44,CENTRAL PK N/ADAM C POWELL BL,40.799354,-73.954975,28.0
475,0,M2,400226,45,ADAM C POWELL BL/W 113 ST,40.801484,-73.953579,28.0
476,0,M2,400228,46,ADAM C POWELL BL/W 116 ST,40.803426,-73.952158,28.0
477,0,M2,404963,47,ADAM C POWELL BL/WEST 119 ST,40.805343,-73.950713,28.0
478,0,M2,400230,48,ADAM C POWELL BL/W 121 ST,40.806598,-73.949844,28.0
479,0,M2,400231,49,ADAM C POWELL BL/W 123 ST,40.80752,-73.949175,28.0
480,0,M2,404283,50,ADAM C POWELL BL/W 125 ST,40.809158,-73.947978,28.0
596,0,M3,403267,42,CENTRAL PK N/5 AV,40.797182,-73.949152,28.0
597,0,M3,400224,43,CENTRAL PK N/MALCOLM X BL,40.798395,-73.952601,28.0
598,0,M3,400225,44,CENTRAL PK N/ADAM C POWELL BL,40.799354,-73.954975,28.0
619,0,M3,404071,51,ST NICHOLAS AV/W 124 ST,40.810354,-73.952753,28.0
648,0,M3,400390,45,CATHEDRAL PY/FRED DOUGLASS BL,40.80078,-73.958486,28.0
649,0,M3,401040,46,MANHATTAN AV/CATHEDRAL PKY,40.80148,-73.959315,28.0
650,0,M3,405092,47,MANHATTAN AV/W 113 ST,40.803344,-73.957959,28.0
651,0,M3,400394,48,MANHATTAN AV/W 116 ST,40.804877,-73.956842,28.0
652,0,M3,400395,49,MANHATTAN AV/W 119 ST,40.807171,-73.955168,28.0
653,0,M3,400396,50,MANHATTAN AV/W 121 ST,40.808447,-73.954236,28.0
766,0,M7,405092,45,MANHATTAN AV/W 113 ST,40.803344,-73.957959,28.0
767,0,M7,400394,46,MANHATTAN AV/W 116 ST,40.804877,-73.956842,28.0
799,0,M7,405087,44,MANHATTAN AV/W 111 ST,40.80173,-73.959138,28.0
800,0,M7,401044,47,W 116 ST/FRED DOUGLASS BL,40.804229,-73.955203,28.0
801,0,M7,401045,48,W 116 ST/ADAM C POWELL BL,40.802908,-73.952032,28.0
808,0,M7,404341,49,MALCOLM X BL / W 116 ST,40.802336,-73.94928,28.0
809,0,M7,401047,50,MALCOLM X BL/W 119 ST,40.804171,-73.947943,28.0
810,0,M7,404333,51,MALCOLM X BL/W 122 ST,40.806067,-73.946561,28.0
811,0,M7,404334,52,MALCOLM X BL/W 125 ST,40.80804,-73.945118,28.0
901,0,M10,401267,24,FRED DOUGLASS BL/W 111 ST,40.801444,-73.957433,28.0
902,0,M10,401268,25,FRED DOUGLASS BL/W 113 ST,40.802747,-73.956482,28.0
903,0,M10,401269,26,FRED DOUGLASS BL/W 116 ST,40.804742,-73.955025,28.0
904,0,M10,401270,27,FRED DOUGLASS BL/W 119 ST,40.806378,-73.953887,28.0
905,0,M10,401271,28,FRED DOUGLASS BL/W 121 ST,40.807445,-73.953051,28.0
906,0,M10,401272,29,FRED DOUGLASS BL/W 123 ST,40.809069,-73.951847,28.0
907,0,M10,405182,30,FRED DOUGLASS BL/W 125 ST,40.810559,-73.950766,28.0
1027,0,M4,403267,33,CENTRAL PK N/5 AV,40.797182,-73.949152,28.0
1028,0,M4,400224,34,CENTRAL PK N/MALCOLM X BL,40.798395,-73.952601,28.0
1029,0,M4,400225,35,CENTRAL PK N/ADAM C POWELL BL,40.799354,-73.954975,28.0
1044,0,M4,400390,36,CATHEDRAL PY/FRED DOUGLASS BL,40.80078,-73.958486,28.0
1119,0,M60+,402656,6,W 125 ST/ST NICHOLAS AV,40.810526,-73.952174,28.0
1120,0,M60+,402659,7,W 125 ST/MALCOLM X  BL,40.807514,-73.945026,28.0
1136,0,M101,402507,49,W 125 ST/MALCOLM X BL,40.808026,-73.945964,28.0
1137,0,M101,402509,51,W 125 ST/FRED DOUGLASS BL,40.810402,-73.951598,28.0
1188,0,M101,402506,48,W 125 ST/5 AV,40.806542,-73.94244,28.0
1189,0,M101,402508,50,W 125 ST/ADAM C POWELL BL,40.809228,-73.948781,28.0
1272,0,M102,404341,46,MALCOLM X BL / W 116 ST,40.802336,-73.94928,28.0
1273,0,M102,401047,47,MALCOLM X BL/W 119 ST,40.804171,-73.947943,28.0
1274,0,M102,404333,48,MALCOLM X BL/W 122 ST,40.806067,-73.946561,28.0
1275,0,M102,404334,49,MALCOLM X BL/W 125 ST,40.80804,-73.945118,28.0
1317,0,M116,405092,7,MANHATTAN AV/W 113 ST,40.803344,-73.957959,28.0
1318,0,M116,400394,8,MANHATTAN AV/W 116 ST,40.804877,-73.956842,28.0
1324,0,M116,405087,6,MANHATTAN AV/W 111 ST,40.80173,-73.959138,28.0
1325,0,M116,401044,9,W 116 ST/FRED DOUGLASS BL,40.804229,-73.955203,28.0
1326,0,M116,401045,10,W 116 ST/ADAM C POWELL BL,40.802908,-73.952032,28.0
1327,0,M116,401988,11,W 116 ST/MALCOLM X BL,40.801755,-73.949213,28.0
1328,0,M116,401989,12,W 116 ST/5 AV,40.800666,-73.94671,28.0
1842,1,M2,400283,23,ADAM C POWELL BL/W 125 ST,40.80918,-73.948379,28.0
1843,1,M2,400284,24,ADAM C POWELL BL/W 122 ST,40.806837,-73.950097,28.0
1844,1,M2,400285,25,ADAM C POWELL BL/W 120 ST,40.805602,-73.950997,28.0
1845,1,M2,400287,26,ADAM C POWELL BL/W 116 ST,40.803591,-73.952433,28.0
1846,1,M2,400288,27,ADAM C POWELL BL/W 114 ST,40.801714,-73.953836,28.0
1847,1,M2,400289,28,ADAM C POWELL BL/W 112 ST,40.80046,-73.95475,28.0
1931,1,M1,400098,11,5 AV/W 125 ST,40.806137,-73.942555,28.0
1932,1,M1,400099,12,MT MORRIS PK W/W 124 ST,40.80619,-73.944603,28.0
1933,1,M1,400100,13,MT MORRIS PK W/W 121 ST,40.804583,-73.94566,28.0
1934,1,M1,400101,14,W 120 ST/5 AV,40.80322,-73.944671,28.0
1935,1,M1,400102,15,5 AV/W 118 ST,40.801694,-73.945835,28.0
1936,1,M1,400103,16,5 AV/W 116 ST,40.800355,-73.946815,28.0
1937,1,M1,400105,17,5 AV/W 112 ST,40.79786,-73.948595,28.0
1984,1,M3,400479,30,MANHATTAN AV/W 122 ST,40.808628,-73.95429,28.0
1985,1,M3,405093,31,MANHATTAN AV/W 119 ST,40.807075,-73.955421,28.0
1986,1,M3,400482,32,MANHATTAN AV/W 116 ST,40.804751,-73.957121,28.0
1987,1,M3,400483,33,MANHATTAN AV/W 114 ST,40.803829,-73.957789,28.0
2139,1,M7,400482,16,MANHATTAN AV/W 116 ST,40.804751,-73.957121,28.0
2140,1,M7,400483,17,MANHATTAN AV/W 114 ST,40.803829,-73.957789,28.0
2157,1,M7,404274,13,W 116 ST/MALCOLM X BL,40.802292,-73.950025,28.0
2158,1,M7,401078,14,W 116 ST/ST NICHOLAS AV,40.803561,-73.953097,28.0
2159,1,M7,401079,15,W 116 ST/FRED DOUGLASS BL,40.804421,-73.955141,28.0
2171,1,M7,404336,9,MALCOLM X BL/W 127 ST,40.808753,-73.944937,28.0
2172,1,M7,803165,10,MALCOLM X BL/W 124 ST,40.807032,-73.946242,28.0
2173,1,M7,401074,11,MALCOLM X BL/W 122 ST,40.805595,-73.947252,28.0
2174,1,M7,404978,12,MALCOLM X B / W 119 ST,40.803636,-73.948676,28.0
2254,1,M10,405384,15,FREDERICK DOUGLASS BL/125 ST,40.810055,-73.95141,28.0
2255,1,M10,405289,16,FREDERICK DOUGLASS/W 121 ST,40.807524,-73.953286,28.0
2256,1,M10,404245,17,FRED DOUGLASS BL/W 119 ST,40.80609,-73.954262,28.0
2257,1,M10,404915,18,FREDERICK DOUGLASS BL/W 116 ST,40.804152,-73.955672,28.0
2258,1,M10,405247,19,FREDERICK DOUGLASS BL/114 ST,40.803307,-73.956318,28.0
2259,1,M10,401324,20,FRED DOUGLASS BL/W 112 ST,40.801644,-73.957505,28.0
2260,1,M10,401325,21,FRED DOUGLASS BL/CATHEDRAL PKY,40.800938,-73.957992,28.0
2261,1,M10,903228,22,110 ST/FREDERICK DOUGLAS BL,40.800832,-73.958331,28.0
2486,1,M60+,402507,15,W 125 ST/MALCOLM X BL,40.808026,-73.945964,28.0
2487,1,M60+,402509,16,W 125 ST/FRED DOUGLASS BL,40.810402,-73.951598,28.0
2493,1,M101,402656,28,W 125 ST/ST NICHOLAS AV,40.810526,-73.952174,28.0
2494,1,M101,402659,31,W 125 ST/MALCOLM X  BL,40.807514,-73.945026,28.0
2569,1,M101,402657,29,W 125 ST/FRED DOUGLASS BL,40.809908,-73.950705,28.0
2570,1,M101,402658,30,W 125 ST/ADAM C POWELL BL,40.8087,-73.947836,28.0
2626,1,M102,401988,13,W 116 ST/MALCOLM X BL,40.801755,-73.949213,28.0
2627,1,M102,401989,14,W 116 ST/5 AV,40.800666,-73.94671,28.0
2637,1,M102,404336,9,MALCOLM X BL/W 127 ST,40.808753,-73.944937,28.0
2638,1,M102,803165,10,MALCOLM X BL/W 124 ST,40.807032,-73.946242,28.0
2639,1,M102,401074,11,MALCOLM X BL/W 122 ST,40.805595,-73.947252,28.0
2640,1,M102,404978,12,MALCOLM X B / W 119 ST,40.803636,-73.948676,28.0
2679,1,M116,400482,14,MANHATTAN AV/W 116 ST,40.804751,-73.957121,28.0
2680,1,M116,400483,15,MANHATTAN AV/W 114 ST,40.803829,-73.957789,28.0
2692,1,M116,404274,11,W 116 ST/MALCOLM X BL,40.802292,-73.950025,28.0
2693,1,M116,401078,12,W 116 ST/ST NICHOLAS AV,40.803561,-73.953097,28.0
2694,1,M116,401079,13,W 116 ST/FRED DOUGLASS BL,40.804421,-73.955141,28.0
641,0,M3,400422,73,ST NICHOLAS AV/W 179 ST,40.848225,-73.934397,34.0
642,0,M3,400423,74,ST NICHOLAS AV/W 181 ST,40.849572,-73.933416,34.0
643,0,M3,403976,75,ST NICHOLAS AV/W 184 ST,40.851369,-73.932102,34.0
644,0,M3,400426,76,ST NICHOLAS AV/W 187 ST,40.853358,-73.930644,34.0
645,0,M3,404046,77,ST NICHOLAS AV/W 190 ST,40.855196,-73.929301,34.0
646,0,M3,404928,78,ST NICHOLAS AV/W 193 ST,40.856667,-73.928265,34.0
647,0,M3,903219,79,FT GEORGE AV/66 FT GEORGE AV,40.858092,-73.925535,34.0
1010,0,M4,400631,71,FT WASHINGTON AV/W 181 ST,40.851202,-73.938078,34.0
1011,0,M4,400632,72,FT WASHINGTON AV/W 183 ST,40.852396,-73.937654,34.0
1012,0,M4,400633,73,FT WASHINGTON AV/W 185 ST,40.853639,-73.937266,34.0
1013,0,M4,400634,74,FT WASHINGTON AV/W 187 ST,40.85507,-73.936723,34.0
1014,0,M4,400635,75,FT WASHINGTON AV/W 190 ST,40.857335,-73.935335,34.0
1015,0,M4,400636,76,FT WASHINGTON AV/CABRINI BL,40.858996,-73.934186,34.0
1078,0,M4,404117,77,FT TRYON PARK/OPP CAFE LOT,40.863331,-73.932397,34.0
1079,0,M4,803067,78,MARGARET CORBIN DR/CLOISTERS,40.865644,-73.932059,34.0
1205,0,M101,402744,73,AMSTERDAM AV/W 179 ST,40.847008,-73.931612,34.0
1206,0,M101,402745,74,AMSTERDAM AV/W 181 ST,40.848358,-73.930616,34.0
1207,0,M101,405185,75,AMSTERDAM AV/W 183 ST,40.849806,-73.929603,34.0
1208,0,M101,402748,76,AMSTERDAM AV/W 187 ST,40.852204,-73.927829,34.0
1209,0,M101,402749,77,AMSTERDAM AV/W 190 ST,40.853927,-73.926552,34.0
1210,0,M101,803020,78,AMSTERDAM AV/193 ST,40.855683,-73.925293,34.0
1247,0,M98,403439,9,W 179 ST/AMSTERDAM AV,40.847044,-73.932251,34.0
1248,0,M98,403440,10,W 179 ST/ST NICHOLAS AV,40.848025,-73.934477,34.0
1249,0,M98,404194,11,W 179 ST/WADSWORTH AV,40.848514,-73.935778,34.0
1250,0,M98,403670,12,W 179 ST/BROADWAY,40.849167,-73.937993,34.0
1251,0,M98,400631,13,FT WASHINGTON AV/W 181 ST,40.851202,-73.938078,34.0
1252,0,M98,400632,14,FT WASHINGTON AV/W 183 ST,40.852396,-73.937654,34.0
1253,0,M98,400633,15,FT WASHINGTON AV/W 185 ST,40.853639,-73.937266,34.0
1254,0,M98,400634,16,FT WASHINGTON AV/W 187 ST,40.85507,-73.936723,34.0
1255,0,M98,400635,17,FT WASHINGTON AV/W 190 ST,40.857335,-73.935335,34.0
1256,0,M98,400636,18,FT WASHINGTON AV/CABRINI BL,40.858996,-73.934186,34.0
1993,1,M3,405091,1,FT GEORGE AV/66 FORT GEORGE AV,40.85833,-73.925388,34.0
1994,1,M3,403466,2,ST NICHOLAS AV/FORT GEORGE HILL,40.857071,-73.927934,34.0
1995,1,M3,400448,3,ST NICHOLAS AV/W 192 ST,40.856143,-73.928818,34.0
1996,1,M3,400449,4,ST NICHOLAS AV/W 190 ST,40.854494,-73.930039,34.0
1997,1,M3,403978,5,ST NICHOLAS AV/W 187 ST,40.85276,-73.931345,34.0
1998,1,M3,400452,6,ST NICHOLAS AV/W 184 ST,40.85079,-73.932783,34.0
1999,1,M3,400453,7,ST NICHOLAS AV/W 181 ST,40.849015,-73.934086,34.0
2376,1,M4,400639,3,FT WASHINGTON AV/CABRINI BL,40.859209,-73.934278,34.0
2377,1,M4,400640,4,FT WASHINGTON AV/W 190 ST,40.856809,-73.935921,34.0
2378,1,M4,400641,5,FT WASHINGTON AV/W 187 ST,40.854822,-73.937062,34.0
2379,1,M4,400642,6,FT WASHINGTON AV/W 185 ST,40.853134,-73.937591,34.0
2380,1,M4,400643,7,FT WASHINGTON AV/W 183 ST,40.851888,-73.937987,34.0
2381,1,M4,400644,8,FT WASHINGTON AV/W 181 ST,40.850634,-73.938487,34.0
2438,1,M4,403835,1,MARGARET CORBIN DR/CLOISTERS,40.865548,-73.932157,34.0
2439,1,M4,404118,2,FT TRYON PARK/CAFE LOT,40.863798,-73.932496,34.0
2502,1,M101,400448,1,ST NICHOLAS AV/W 192 ST,40.856143,-73.928818,34.0
2547,1,M101,404008,2,AMSTERDAM AV/W 190 ST,40.853438,-73.927069,34.0
2548,1,M101,402764,3,AMSTERDAM AV/W 188 ST,40.852241,-73.927959,34.0
2549,1,M101,405186,4,AMSTERDAM AV/W 185 ST,40.850616,-73.929187,34.0
2550,1,M101,402766,5,AMSTERDAM AV/W 184 ST,40.849558,-73.929899,34.0
2551,1,M101,402767,6,AMSTERDAM AV/W 181 ST,40.848228,-73.930845,34.0
2603,1,M98,400639,1,FT WASHINGTON AV/CABRINI BL,40.859209,-73.934278,34.0
2604,1,M98,400640,2,FT WASHINGTON AV/W 190 ST,40.856809,-73.935921,34.0
2605,1,M98,400641,3,FT WASHINGTON AV/W 187 ST,40.854822,-73.937062,34.0
2606,1,M98,400642,4,FT WASHINGTON AV/W 185 ST,40.853134,-73.937591,34.0
2607,1,M98,400643,5,FT WASHINGTON AV/W 183 ST,40.851888,-73.937987,34.0
2608,1,M98,400644,6,FT WASHINGTON AV/W 181 ST,40.850634,-73.938487,34.0
1125,0,M60+,503357,12,HOYT AV/31 ST,40.770207,-73.917431,114.0
1126,0,M60+,505254,13,ASTORIA BL S/STEINWAY ST,40.76879,-73.910815,114.0
2479,1,M60+,503855,8,DITMARS BL/GRAND CENTRAL PY,40.767279,-73.887997,114.0
2480,1,M60+,504517,9,ASTORIA BL N/77 ST,40.766799,-73.892507,114.0
2481,1,M60+,503870,10,ASTORIA BL/STEINWAY ST,40.769407,-73.909755,114.0
2482,1,M60+,504007,11,HOYT AV/31 ST,40.771069,-73.917561,114.0
