direction_id,route_id,stop_id,stop_sequence,stop_name,stop_lat,stop_lon,precinct,ADA,ADA Notes,express
0,M57,400751,1,W 72 ST/BROADWAY,40.779127,-73.982766,20.0,1,,False
0,M57,403036,2,WEST END AV/W 72 ST,40.779534,-73.98481,20.0,1,,False
0,M57,403037,3,WEST END AV/W 69 ST,40.777468,-73.986337,20.0,1,,False
0,M57,403038,4,WEST END AV/W 66 ST,40.77618,-73.987276,20.0,1,,False
0,M57,404826,5,WEST END AV/W 64 ST,40.77449,-73.98841,20.0,1,,False
0,M57,404036,6,WEST END AV/W 61 ST,40.772991,-73.989602,20.0,1,,False
0,M72,405086,3,WEST END AV/WEST 70 ST,40.778725,-73.985135,20.0,1,,False
0,M72,400853,4,W 72 ST/WEST END AV,40.779553,-73.984116,20.0,1,,False
0,M72,405308,1,WEST 66 ST/FREEDOM PL,40.7765,-73.988634,20.0,1,,False
0,M72,404865,2,W 70 ST/FREEDOM PL,40.778911,-73.986687,20.0,1,,False
0,M72,405237,5,W 72 ST/BROADWAY,40.778765,-73.982161,20.0,1,,False
0,M72,403606,6,W 72 ST/COLUMBUS AV,40.777403,-73.979019,20.0,1,,False
0,M72,402269,7,W 72 ST/CENTRAL PK W,40.776206,-73.976177,20.0,1,,False
0,M72,401344,8,CENTRAL PK W/W 70 ST,40.774837,-73.97716,20.0,1,,False
0,M72,401345,9,CENTRAL PK W/W 68 ST,40.773569,-73.978045,20.0,1,,False
0,M5,400751,19,W 72 ST/BROADWAY,40.779127,-73.982766,20.0,1,,False
0,M5,401016,15,BROADWAY/W 61 ST,40.769517,-73.981883,20.0,1,,False
0,M5,400747,16,BROADWAY/W 63 ST,40.77186,-73.981984,20.0,1,,False
0,M5,403271,17,BROADWAY/W 66 ST,40.774269,-73.982027,20.0,1,,False
0,M5,400750,18,BROADWAY/W 69 ST,40.776682,-73.981922,20.0,1,,False
0,M5,400752,20,W 72 ST/WEST END AV,40.780124,-73.984968,20.0,1,,False
0,M5,404289,21,RIVERSIDE DR/W 74 ST,40.78204,-73.98487,20.0,1,,False
0,M5,400755,22,RIVERSIDE DR/W 77 ST,40.783989,-73.983566,20.0,1,,False
0,M5,400756,23,RIVERSIDE DR/W 79 ST,40.785215,-73.982281,20.0,1,,False
0,M5,404290,24,RIVERSIDE DR/W 82 ST,40.787205,-73.98111,20.0,1,,False
0,M5,400759,25,RIVERSIDE DR/W 85 ST,40.789293,-73.98076,20.0,1,,False
0,M20,403510,39,W 66 ST/CENTRAL PK W,40.772619,-73.979118,20.0,1,,False
0,M20,403779,40,W 66 ST/COLUMBUS AV,40.773578,-73.981381,20.0,1,,False
0,M20,400858,41,BROADWAY/W 64 ST,40.771797,-73.982364,20.0,1,,False
0,M7,401024,28,AMSTERDAM AV/W 79 ST,40.78328,-73.978085,20.0,1,,False
0,M7,401016,21,BROADWAY/W 61 ST,40.769517,-73.981883,20.0,1,,False
0,M7,400747,22,BROADWAY/W 63 ST,40.77186,-73.981984,20.0,1,,False
0,M7,403271,23,BROADWAY/W 66 ST,40.774269,-73.982027,20.0,1,,False
0,M7,400750,24,BROADWAY/W 69 ST,40.776682,-73.981922,20.0,1,,False
0,M7,401021,25,AMSTERDAM AV/W 72 ST,40.778924,-73.981271,20.0,1,,False
0,M7,401022,26,AMSTERDAM AV/W 75 ST,40.780222,-73.980314,20.0,1,,False
0,M7,401023,27,AMSTERDAM AV/W 77 ST,40.782056,-73.978988,20.0,1,,False
0,M7,401025,29,AMSTERDAM AV/W 81 ST,40.784688,-73.97707,20.0,1,,False
0,M7,401026,30,AMSTERDAM AV/W 83 ST,40.785955,-73.976152,20.0,1,,False
0,M11,401024,30,AMSTERDAM AV/W 79 ST,40.78328,-73.978085,20.0,1,,False
0,M11,401414,22,AMSTERDAM AV/W 59 ST,40.770631,-73.987328,20.0,1,,False
0,M11,401416,23,AMSTERDAM AV/W 62 ST,40.772642,-73.985836,20.0,1,,False
0,M11,401417,24,AMSTERDAM AV/W 65 ST,40.774341,-73.984619,20.0,1,,False
0,M11,403472,25,AMSTERDAM AV/W 67 ST,40.775639,-73.98367,20.0,1,,False
0,M11,403555,26,AMSTERDAM AV/W 69 ST,40.776913,-73.982741,20.0,1,,False
0,M11,401021,27,AMSTERDAM AV/W 72 ST,40.778924,-73.981271,20.0,1,,False
0,M11,401022,28,AMSTERDAM AV/W 75 ST,40.780222,-73.980314,20.0,1,,False
0,M11,401023,29,AMSTERDAM AV/W 77 ST,40.782056,-73.978988,20.0,1,,False
0,M11,401025,31,AMSTERDAM AV/W 81 ST,40.784688,-73.97707,20.0,1,,False
0,M11,401026,32,AMSTERDAM AV/W 83 ST,40.785955,-73.976152,20.0,1,,False
0,M104,401016,8,BROADWAY/W 61 ST,40.769517,-73.981883,20.0,1,,False
0,M104,400747,9,BROADWAY/W 63 ST,40.77186,-73.981984,20.0,1,,False
0,M104,403271,10,BROADWAY/W 66 ST,40.774269,-73.982027,20.0,1,,False
0,M104,400750,11,BROADWAY/W 69 ST,40.776682,-73.981922,20.0,1,,False
0,M104,403103,12,BROADWAY/W 73 ST,40.779589,-73.981517,20.0,1,,False
0,M104,403104,13,BROADWAY/W 75 ST,40.781301,-73.981021,20.0,1,,False
0,M104,403105,14,BROADWAY/W 77 ST,40.782726,-73.980497,20.0,1,,False
0,M104,403106,15,BROADWAY/W 79 ST,40.784084,-73.979583,20.0,1,,False
0,M104,403107,16,BROADWAY/W 82 ST,40.785994,-73.978167,20.0,1,,False
0,M104,403108,17,BROADWAY/W 84 ST,40.787215,-73.977214,20.0,1,,False
0,M66,403487,1,W 66 ST/WEST END AV,40.776008,-73.98702,20.0,1,,False
0,M66,403488,2,W 65 ST/WEST END AV,40.775118,-73.98728,20.0,1,,False
0,M66,403489,3,W 65 ST/AMSTERDAM AV,40.773871,-73.984293,20.0,1,,False
0,M66,403491,4,W 65 ST/BROADWAY,40.773177,-73.982788,20.0,1,,False
0,M66,403573,5,W 65 ST/COLUMBUS AV,40.772835,-73.981874,20.0,1,,False
0,M66,403492,6,W 65 ST/CENTRAL PK W,40.77181,-73.979385,20.0,1,,False
0,M79+,403522,1,W 79 ST/RIVERSIDE DR,40.784776,-73.982324,20.0,1,,True
0,M79+,403523,2,W 79 ST/BROADWAY,40.783867,-73.980284,20.0,1,,True
0,M79+,401024,3,AMSTERDAM AV/W 79 ST,40.78328,-73.978085,20.0,1,,True
0,M79+,401867,4,W 81 ST/COLUMBUS AV,40.78298,-73.974189,20.0,1,,True
0,M79+,401868,5,W 81 ST/CENTRAL PK W,40.782008,-73.971925,20.0,1,,True
0,M86+,403560,1,W 86 ST/WEST END AV,40.788815,-73.977726,20.0,1,,True
0,M86+,401930,2,W 86 ST/BROADWAY,40.788358,-73.97679,20.0,1,,True
0,M86+,401897,3,W 86 ST/AMSTERDAM AV,40.78775,-73.975401,20.0,1,,True
0,M86+,401898,4,W 86 ST/COLUMBUS AV,40.786476,-73.972389,20.0,1,,True
0,M86+,401899,5,W 86 ST/CENTRAL PK W,40.785289,-73.969373,20.0,1,,True
0,M57,403626,7,WEST END AV/W 59 ST,40.77141,-73.990797,18.0,1,,False
0,M57,402205,8,W 57 ST/11 AV,40.77023,-73.991334,18.0,1,,False
0,M57,403992,9,W 57 ST/10 AV,40.768866,-73.988149,18.0,1,,False
0,M57,403984,10,W 57 ST/9 AV,40.767697,-73.98534,18.0,1,,False
0,M57,403562,11,W 57 ST/8 AV,40.766592,-73.982719,18.0,1,,False
0,M57,403736,12,W 57 ST/7 AV,40.765563,-73.980322,18.0,1,,False
0,M57,403621,13,W 57 ST/AV OF THE AMERICAS,40.764061,-73.976728,18.0,1,,False
0,M57,803095,14,W 57 ST/5 AV,40.763031,-73.974302,18.0,1,,False
0,M57,403620,15,E 57 ST/MADISON AV,40.762047,-73.971943,18.0,1,,False
0,M12,402205,17,W 57 ST/11 AV,40.77023,-73.991334,18.0,1,,False
0,M12,403992,18,W 57 ST/10 AV,40.768866,-73.988149,18.0,1,,False
0,M12,403984,19,W 57 ST/9 AV,40.767697,-73.98534,18.0,1,,False
0,M12,402160,12,12 AV/W 43 ST,40.762552,-74.000157,18.0,1,,False
0,M12,402161,13,12 AV/W 46 ST,40.764287,-73.998337,18.0,1,,False
0,M12,402162,14,12 AV/W 48 ST,40.765583,-73.997431,18.0,1,,False
0,M12,405459,15,12 AV/W 52 ST,40.768082,-73.995597,18.0,1,,False
0,M12,405460,16,12 AV/W 55 ST,40.769942,-73.994246,18.0,1,,False
0,M12,403846,20,8 AV/W  57 ST,40.76674,-73.982683,18.0,1,,False
0,M12,405299,21,W 58 ST/BROADWAY,40.767155,-73.981981,18.0,1,,False
0,M31,403992,3,W 57 ST/10 AV,40.768866,-73.988149,18.0,1,,False
0,M31,403984,4,W 57 ST/9 AV,40.767697,-73.98534,18.0,1,,False
0,M31,403736,6,W 57 ST/7 AV,40.765563,-73.980322,18.0,1,,False
0,M31,403621,7,W 57 ST/AV OF THE AMERICAS,40.764061,-73.976728,18.0,1,,False
0,M31,803095,8,W 57 ST/5 AV,40.763031,-73.974302,18.0,1,,False
0,M31,403620,9,E 57 ST/MADISON AV,40.762047,-73.971943,18.0,1,,False
0,M31,401412,2,10 AV/W 55 ST,40.768029,-73.989275,18.0,1,,False
0,M31,404058,1,W 54 ST/11 AV,40.767925,-73.991859,18.0,1,,False
0,M31,803001,5,W 57 ST/8 AV,40.766495,-73.982489,18.0,1,,False
0,M5,404043,6,AV OF THE AMERICAS/W 45 ST,40.75703,-73.982378,18.0,1,,False
0,M5,400938,7,AV OF THE AMERICAS/W 47 ST,40.75829,-73.981468,18.0,1,,False
0,M5,403132,8,AV OF THE AMERICAS/W 50 ST,40.759771,-73.980381,18.0,1,,False
0,M5,400940,9,AV OF THE AMERICAS/W 51 ST,40.760748,-73.97967,18.0,1,,False
0,M5,400941,10,AV OF THE AMERICAS/W 54 ST,40.762617,-73.978301,18.0,1,,False
0,M5,404992,11,AV OF THE AMERICAS/W 57 ST,40.764401,-73.977001,18.0,1,,False
0,M20,404872,32,8 AV/W 46 ST,40.759796,-73.987859,18.0,1,,False
0,M20,404846,33,8 AV/W 49 ST,40.761902,-73.986239,18.0,1,,False
0,M20,401239,34,8 AV/W 52 ST,40.763788,-73.984867,18.0,1,,False
0,M20,405393,35,8 AV/W  56 ST,40.766284,-73.983072,18.0,1,,False
0,M2,400360,16,MADISON AV/E 49 ST,40.757755,-73.975576,18.0,1,,False
0,M2,400363,19,MADISON AV/E 57 ST,40.762858,-73.971838,18.0,1,,False
0,M2,400358,15,MADISON AV/E 45 ST,40.755233,-73.977403,18.0,1,,False
0,M2,400361,17,MADISON AV/E 52 ST,40.759636,-73.974182,18.0,1,,False
0,M2,400362,18,MADISON AV/E 55  ST,40.76114,-73.973144,18.0,1,,False
0,M1,400360,21,MADISON AV/E 49 ST,40.757755,-73.975576,18.0,1,,False
0,M1,400363,24,MADISON AV/E 57 ST,40.762858,-73.971838,18.0,1,,False
0,M1,400358,20,MADISON AV/E 45 ST,40.755233,-73.977403,18.0,1,,False
0,M1,400361,22,MADISON AV/E 52 ST,40.759636,-73.974182,18.0,1,,False
0,M1,400362,23,MADISON AV/E 55  ST,40.76114,-73.973144,18.0,1,,False
0,M3,400360,16,MADISON AV/E 49 ST,40.757755,-73.975576,18.0,1,,False
0,M3,400363,19,MADISON AV/E 57 ST,40.762858,-73.971838,18.0,1,,False
0,M3,400358,15,MADISON AV/E 45 ST,40.755233,-73.977403,18.0,1,,False
0,M3,400361,17,MADISON AV/E 52 ST,40.759636,-73.974182,18.0,1,,False
0,M3,400362,18,MADISON AV/E 55  ST,40.76114,-73.973144,18.0,1,,False
0,M7,404043,12,AV OF THE AMERICAS/W 45 ST,40.75703,-73.982378,18.0,1,,False
0,M7,400938,13,AV OF THE AMERICAS/W 47 ST,40.75829,-73.981468,18.0,1,,False
0,M7,403132,14,AV OF THE AMERICAS/W 50 ST,40.759771,-73.980381,18.0,1,,False
0,M7,400940,15,AV OF THE AMERICAS/W 51 ST,40.760748,-73.97967,18.0,1,,False
0,M7,400941,16,AV OF THE AMERICAS/W 54 ST,40.762617,-73.978301,18.0,1,,False
0,M7,404992,17,AV OF THE AMERICAS/W 57 ST,40.764401,-73.977001,18.0,1,,False
0,M11,401408,16,10 AV/W 45 ST,40.761749,-73.993798,18.0,1,,False
0,M11,401409,17,10 AV/W 47 ST,40.763025,-73.992874,18.0,1,,False
0,M11,401410,18,10 AV/W 49 ST,40.764272,-73.991957,18.0,1,,False
0,M11,401411,19,10 AV/W 53 ST,40.766418,-73.990397,18.0,1,,False
0,M11,401412,20,10 AV/W 55 ST,40.768029,-73.989275,18.0,1,,False
0,M11,401413,21,10 AV/W 57 ST,40.768926,-73.988563,18.0,1,,False
0,M10,403846,1,8 AV/W  57 ST,40.76674,-73.982683,18.0,1,,False
0,M104,404872,3,8 AV/W 46 ST,40.759796,-73.987859,18.0,1,,False
0,M104,404846,4,8 AV/W 49 ST,40.761902,-73.986239,18.0,1,,False
0,M104,401239,5,8 AV/W 52 ST,40.763788,-73.984867,18.0,1,,False
0,M104,405393,6,8 AV/W  56 ST,40.766284,-73.983072,18.0,1,,False
0,M4,400360,7,MADISON AV/E 49 ST,40.757755,-73.975576,18.0,1,,False
0,M4,400363,10,MADISON AV/E 57 ST,40.762858,-73.971838,18.0,1,,False
0,M4,400358,6,MADISON AV/E 45 ST,40.755233,-73.977403,18.0,1,,False
0,M4,400361,8,MADISON AV/E 52 ST,40.759636,-73.974182,18.0,1,,False
0,M4,400362,9,MADISON AV/E 55  ST,40.76114,-73.973144,18.0,1,,False
0,M50,402160,2,12 AV/W 43 ST,40.762552,-74.000157,18.0,1,,False
0,M50,402161,3,12 AV/W 46 ST,40.764287,-73.998337,18.0,1,,False
0,M50,402162,4,12 AV/W 48 ST,40.765583,-73.997431,18.0,1,,False
0,M50,402163,5,W 50 ST/12 AV,40.766621,-73.996653,18.0,1,,False
0,M50,402164,6,W 50 ST/11 AV,40.765735,-73.994534,18.0,1,,False
0,M50,402165,7,W 50 ST/10 AV,40.764502,-73.991704,18.0,1,,False
0,M50,402166,8,W 50 ST/9 AV,40.763468,-73.989101,18.0,1,,False
0,M50,402167,9,W 50 ST/8 AV,40.762023,-73.985792,18.0,1,,False
0,M50,403760,10,W 50 ST/7 AV,40.761062,-73.983503,18.0,1,,False
0,M50,402169,11,W 50 ST/AV OF THE AMERICAS,40.759675,-73.980215,18.0,1,,False
0,M50,402171,12,E 50 ST/5 AV,40.758431,-73.977104,18.0,1,,False
0,M50,402172,13,E 50 ST/MADISON AV,40.757723,-73.975397,18.0,1,,False
0,M57,402214,16,E 57 ST/LEXINGTON AV,40.760727,-73.968725,17.0,1,,False
0,M57,402215,17,E 57 ST/3 AV,40.75991,-73.966804,17.0,1,,False
0,M57,402216,18,E 57 ST/2 AV,40.759086,-73.96486,17.0,1,,False
0,M57,401704,19,1 AV/E 57 ST,40.758829,-73.962462,17.0,1,,False
0,M31,402214,10,E 57 ST/LEXINGTON AV,40.760727,-73.968725,17.0,1,,False
0,M31,402215,11,E 57 ST/3 AV,40.75991,-73.966804,17.0,1,,False
0,M31,402216,12,E 57 ST/2 AV,40.759086,-73.96486,17.0,1,,False
0,M31,402217,13,E 57 ST/1 AV,40.758095,-73.962478,17.0,1,,False
0,M31,402218,14,E 57 ST/SUTTON PL,40.757658,-73.961488,17.0,1,,False
0,M31,402328,15,SUTTON PL/SUTTON SQ,40.75826,-73.959957,17.0,1,,False
0,M15+,401704,13,1 AV/E 57 ST,40.758829,-73.962462,17.0,1,,True
0,M15+,403480,10,1 AV/E 34 ST,40.744172,-73.973187,17.0,1,,True
0,M15+,401698,11,1 AV/E 42 ST,40.749251,-73.969332,17.0,1,,True
0,M15+,401701,12,1 AV/MITCHELL PL,40.753591,-73.966311,17.0,1,,True
0,M15,401704,35,1 AV/E 57 ST,40.758829,-73.962462,17.0,1,,False
0,M15,403480,27,1 AV/E 34 ST,40.744172,-73.973187,17.0,1,,False
0,M15,401698,30,1 AV/E 42 ST,40.749251,-73.969332,17.0,1,,False
0,M15,401701,32,1 AV/MITCHELL PL,40.753591,-73.966311,17.0,1,,False
0,M15,401694,26,1 AV/E 31 ST,40.741957,-73.974808,17.0,1,,False
0,M15,401696,28,1 AV/E 36 ST,40.745324,-73.972349,17.0,1,,False
0,M15,401697,29,1 AV/E 39 ST,40.747191,-73.970988,17.0,1,,False
0,M15,401699,31,1 AV/E 45 ST,40.750684,-73.96846,17.0,1,,False
0,M15,401702,33,1 AV/E 52 ST,40.755395,-73.964983,17.0,1,,False
0,M15,401703,34,1 AV/E 55 ST,40.75726,-73.963631,17.0,1,,False
0,M2,400354,11,MADISON AV/E 34 ST,40.748328,-73.982437,17.0,1,,False
0,M2,403456,12,MADISON AV/E 37 ST,40.750124,-73.981081,17.0,1,,False
0,M1,400354,16,MADISON AV/E 34 ST,40.748328,-73.982437,17.0,1,,False
0,M1,403456,17,MADISON AV/E 37 ST,40.750124,-73.981081,17.0,1,,False
0,M3,400354,11,MADISON AV/E 34 ST,40.748328,-73.982437,17.0,1,,False
0,M3,403456,12,MADISON AV/E 37 ST,40.750124,-73.981081,17.0,1,,False
0,M34+,401826,10,E 34 ST/3 AV,40.745446,-73.977711,17.0,1,,True
0,M34+,401827,11,E 34 ST/2 AV,40.744771,-73.976091,17.0,1,,True
0,M34A+,401826,9,E 34 ST/3 AV,40.745446,-73.977711,17.0,1,,True
0,M34A+,401827,10,E 34 ST/2 AV,40.744771,-73.976091,17.0,1,,True
0,M103,402634,19,3 AV/E 31 ST,40.743707,-73.979544,17.0,1,,False
0,M103,403427,20,3 AV/E 33 ST,40.745188,-73.978434,17.0,1,,False
0,M103,402677,21,3 AV/E 37 ST,40.747988,-73.97637,17.0,1,,False
0,M103,402678,22,3 AV/E 39 ST,40.749176,-73.975519,17.0,1,,False
0,M103,402679,23,3 AV/E 42 ST,40.751085,-73.974122,17.0,1,,False
0,M103,402680,24,3 AV/E 45 ST,40.752407,-73.973161,17.0,1,,False
0,M103,402681,25,3 AV/E 47 ST,40.754234,-73.97185,17.0,1,,False
0,M103,402682,26,3 AV/E 50 ST,40.755505,-73.970922,17.0,1,,False
0,M103,405488,27,3 AV/E 53 ST,40.757751,-73.969235,17.0,1,,False
0,M103,405480,28,3 AV/E 57 ST,40.76014,-73.967523,17.0,1,,False
0,M4,400354,2,MADISON AV/E 34 ST,40.748328,-73.982437,17.0,1,,False
0,M4,403456,3,MADISON AV/E 37 ST,40.750124,-73.981081,17.0,1,,False
0,M42,403245,13,E 42 ST/LEXINGTON AV,40.751149,-73.975605,17.0,1,,False
0,M42,403246,14,E 42 ST/3 AV,40.750775,-73.974499,17.0,1,,False
0,M42,403247,15,E 42 ST/2 AV,40.749581,-73.971881,17.0,1,,False
0,M42,403248,16,E 42 ST/1 AV,40.748582,-73.969655,17.0,1,,False
0,M42,903046,17,E 41 ST/1 AV,40.747979,-73.969789,17.0,1,,False
0,M50,402173,14,E 50 ST/LEXINGTON AV,40.756243,-73.972135,17.0,1,,False
0,M50,402174,15,E 50 ST/3 AV,40.755545,-73.970482,17.0,1,,False
0,M50,402175,16,E 50 ST/2 AV,40.754881,-73.9688,17.0,1,,False
0,M50,803151,17,49 ST/1 AV,40.753385,-73.966854,17.0,1,,False
0,M101,402634,10,3 AV/E 31 ST,40.743707,-73.979544,17.0,1,,False
0,M101,403427,11,3 AV/E 33 ST,40.745188,-73.978434,17.0,1,,False
0,M101,402677,12,3 AV/E 37 ST,40.747988,-73.97637,17.0,1,,False
0,M101,402678,13,3 AV/E 39 ST,40.749176,-73.975519,17.0,1,,False
0,M101,402679,14,3 AV/E 42 ST,40.751085,-73.974122,17.0,1,,False
0,M101,402680,15,3 AV/E 45 ST,40.752407,-73.973161,17.0,1,,False
0,M101,402681,16,3 AV/E 47 ST,40.754234,-73.97185,17.0,1,,False
0,M101,402682,17,3 AV/E 50 ST,40.755505,-73.970922,17.0,1,,False
0,M101,405488,18,3 AV/E 53 ST,40.757751,-73.969235,17.0,1,,False
0,M101,405480,19,3 AV/E 57 ST,40.76014,-73.967523,17.0,1,,False
0,M102,402634,10,3 AV/E 31 ST,40.743707,-73.979544,17.0,1,,False
0,M102,403427,11,3 AV/E 33 ST,40.745188,-73.978434,17.0,1,,False
0,M102,402677,12,3 AV/E 37 ST,40.747988,-73.97637,17.0,1,,False
0,M102,402678,13,3 AV/E 39 ST,40.749176,-73.975519,17.0,1,,False
0,M102,402679,14,3 AV/E 42 ST,40.751085,-73.974122,17.0,1,,False
0,M102,402680,15,3 AV/E 45 ST,40.752407,-73.973161,17.0,1,,False
0,M102,402681,16,3 AV/E 47 ST,40.754234,-73.97185,17.0,1,,False
0,M102,402682,17,3 AV/E 50 ST,40.755505,-73.970922,17.0,1,,False
0,M102,405488,18,3 AV/E 53 ST,40.757751,-73.969235,17.0,1,,False
0,M102,405480,19,3 AV/E 57 ST,40.76014,-73.967523,17.0,1,,False
0,M57,405138,20,1 AV/E 60 ST,40.759751,-73.961795,19.0,1,,False
0,M57,903094,21,E 60 ST/YORK AV,40.759519,-73.959889,19.0,1,,False
0,M31,401877,23,YORK AV/E 79 ST,40.77158,-73.950235,19.0,1,,False
0,M31,401909,26,YORK AV/E 86 ST,40.776343,-73.946753,19.0,1,,False
0,M31,401910,27,YORK AV/E 88 ST,40.777473,-73.94591,19.0,1,,False
0,M31,403367,28,E 91 ST/YORK AV,40.779214,-73.944942,19.0,1,,False
0,M31,403383,29,1 AV/E 91 ST,40.780248,-73.946809,19.0,1,,False
0,M31,404154,16,YORK AV/E 60 ST,40.759558,-73.958987,19.0,1,,False
0,M31,402330,17,YORK AV/E 63 ST,40.761483,-73.95757,19.0,1,,False
0,M31,402331,18,YORK AV/E 66 ST,40.763333,-73.95624,19.0,1,,False
0,M31,403563,19,YORK AV/E 69 ST,40.764813,-73.955165,19.0,1,,False
0,M31,402334,20,YORK AV/E 72 ST,40.767166,-73.95344,19.0,1,,False
0,M31,803159,21,YORK AV/E 74 ST,40.768271,-73.952657,19.0,1,,False
0,M31,402336,22,YORK AV/E 76 ST,40.769679,-73.951606,19.0,1,,False
0,M31,402338,24,YORK AV/E 82 ST,40.773596,-73.948771,19.0,1,,False
0,M31,402339,25,YORK AV/E 84 ST,40.774863,-73.947842,19.0,1,,False
0,M31,904918,30,EAST 92 ST/YORK AV,40.779873,-73.944774,19.0,1,,False
0,M72,403494,10,E 65 ST/5 AV,40.767811,-73.969931,19.0,1,,False
0,M72,400027,11,MADISON AV/E 65 ST,40.76758,-73.968375,19.0,1,,False
0,M72,405489,12,MADISON AV/E 67 ST,40.768789,-73.967515,19.0,1,,False
0,M72,400029,13,MADISON AV/E 69 ST,40.770075,-73.966558,19.0,1,,False
0,M72,402290,14,E 72 ST/MADISON AV,40.771502,-73.964994,19.0,1,,False
0,M72,402292,15,E 72 ST/LEXINGTON AV,40.770268,-73.962107,19.0,1,,False
0,M72,402293,16,E 72 ST/3 AV,40.769518,-73.960284,19.0,1,,False
0,M72,405365,17,E 72 ST/2 AV,40.768711,-73.958282,19.0,1,,False
0,M72,402295,18,E 72 ST/1 AV,40.767672,-73.955852,19.0,1,,False
0,M72,803058,19,E 72 ST/YORK AV,40.766958,-73.954141,19.0,1,,False
0,M15+,401707,14,1 AV/E 67 ST,40.76487,-73.958109,19.0,1,,True
0,M15+,401712,15,1 AV/E 79 ST,40.772633,-73.952403,19.0,1,,True
0,M15+,401715,16,1 AV/E 86 ST,40.777168,-73.94911,19.0,1,,True
0,M15,405138,36,1 AV/E 60 ST,40.759751,-73.961795,19.0,1,,False
0,M15,401707,39,1 AV/E 67 ST,40.76487,-73.958109,19.0,1,,False
0,M15,401712,44,1 AV/E 79 ST,40.772633,-73.952403,19.0,1,,False
0,M15,401715,46,1 AV/E 86 ST,40.777168,-73.94911,19.0,1,,False
0,M15,404253,37,1 AV/E 62 ST,40.761632,-73.960457,19.0,1,,False
0,M15,401706,38,1 AV/E 64 ST,40.762984,-73.959485,19.0,1,,False
0,M15,401708,40,1 AV/E 70 ST,40.766741,-73.956738,19.0,1,,False
0,M15,401709,41,1 AV/E 72 ST,40.768087,-73.955742,19.0,1,,False
0,M15,401710,42,1 AV/E 75 ST,40.769986,-73.95435,19.0,1,,False
0,M15,401711,43,1 AV/E 77 ST,40.771254,-73.953421,19.0,1,,False
0,M15,405100,45,1 AV/E 82 ST,40.774585,-73.950985,19.0,1,,False
0,M15,401716,47,1 AV/E 89 ST,40.779039,-73.947728,19.0,1,,False
0,M15,401718,48,1 AV/E 93 ST,40.781562,-73.945891,19.0,1,,False
0,M2,400029,24,MADISON AV/E 69 ST,40.770075,-73.966558,19.0,1,,False
0,M2,400028,23,MADISON AV/E 67 ST,40.768812,-73.967483,19.0,1,,False
0,M2,400030,25,MADISON AV/E 72 ST,40.771802,-73.965308,19.0,1,,False
0,M2,400033,28,MADISON AV/E 81 ST,40.777452,-73.961191,19.0,1,,False
0,M2,400036,30,MADISON AV/E 86 ST,40.781155,-73.958483,19.0,1,,False
0,M2,404191,34,MADISON AV/E 95 ST,40.78708,-73.954126,19.0,1,,False
0,M2,400364,20,MADISON AV/E 60  ST,40.764673,-73.970473,19.0,1,,False
0,M2,400026,21,MADISON AV/E 63 ST,40.766274,-73.969329,19.0,1,,False
0,M2,404994,22,MADISON AV/E 66 ST,40.767836,-73.968184,19.0,1,,False
0,M2,400031,26,MADISON AV/E 74 ST,40.772774,-73.96461,19.0,1,,False
0,M2,400032,27,MADISON AV/E 77 ST,40.775322,-73.962739,19.0,1,,False
0,M2,400034,29,MADISON AV/E 83 ST,40.778793,-73.960206,19.0,1,,False
0,M2,400037,31,MADISON AV/E 89 ST,40.782676,-73.957373,19.0,1,,False
0,M2,400038,32,MADISON AV/E 91 ST,40.78436,-73.956137,19.0,1,,False
0,M2,400039,33,MADISON AV/E 93 ST,40.785636,-73.955205,19.0,1,,False
0,M1,400029,29,MADISON AV/E 69 ST,40.770075,-73.966558,19.0,1,,False
0,M1,400028,28,MADISON AV/E 67 ST,40.768812,-73.967483,19.0,1,,False
0,M1,400030,30,MADISON AV/E 72 ST,40.771802,-73.965308,19.0,1,,False
0,M1,400033,33,MADISON AV/E 81 ST,40.777452,-73.961191,19.0,1,,False
0,M1,400036,35,MADISON AV/E 86 ST,40.781155,-73.958483,19.0,1,,False
0,M1,404191,39,MADISON AV/E 95 ST,40.78708,-73.954126,19.0,1,,False
0,M1,400364,25,MADISON AV/E 60  ST,40.764673,-73.970473,19.0,1,,False
0,M1,404994,27,MADISON AV/E 66 ST,40.767836,-73.968184,19.0,1,,False
0,M1,400031,31,MADISON AV/E 74 ST,40.772774,-73.96461,19.0,1,,False
0,M1,400032,32,MADISON AV/E 77 ST,40.775322,-73.962739,19.0,1,,False
0,M1,400034,34,MADISON AV/E 83 ST,40.778793,-73.960206,19.0,1,,False
0,M1,400037,36,MADISON AV/E 89 ST,40.782676,-73.957373,19.0,1,,False
0,M1,400038,37,MADISON AV/E 91 ST,40.78436,-73.956137,19.0,1,,False
0,M1,400039,38,MADISON AV/E 93 ST,40.785636,-73.955205,19.0,1,,False
0,M1,405490,26,MADISON AV/E 63 ST,40.766452,-73.969245,19.0,1,,False
0,M3,400029,24,MADISON AV/E 69 ST,40.770075,-73.966558,19.0,1,,False
0,M3,400028,23,MADISON AV/E 67 ST,40.768812,-73.967483,19.0,1,,False
0,M3,400030,25,MADISON AV/E 72 ST,40.771802,-73.965308,19.0,1,,False
0,M3,400033,28,MADISON AV/E 81 ST,40.777452,-73.961191,19.0,1,,False
0,M3,400036,30,MADISON AV/E 86 ST,40.781155,-73.958483,19.0,1,,False
0,M3,404191,34,MADISON AV/E 95 ST,40.78708,-73.954126,19.0,1,,False
0,M3,400364,20,MADISON AV/E 60  ST,40.764673,-73.970473,19.0,1,,False
0,M3,400026,21,MADISON AV/E 63 ST,40.766274,-73.969329,19.0,1,,False
0,M3,404994,22,MADISON AV/E 66 ST,40.767836,-73.968184,19.0,1,,False
0,M3,400031,26,MADISON AV/E 74 ST,40.772774,-73.96461,19.0,1,,False
0,M3,400032,27,MADISON AV/E 77 ST,40.775322,-73.962739,19.0,1,,False
0,M3,400034,29,MADISON AV/E 83 ST,40.778793,-73.960206,19.0,1,,False
0,M3,400037,31,MADISON AV/E 89 ST,40.782676,-73.957373,19.0,1,,False
0,M3,400038,32,MADISON AV/E 91 ST,40.78436,-73.956137,19.0,1,,False
0,M3,400039,33,MADISON AV/E 93 ST,40.785636,-73.955205,19.0,1,,False
0,M103,402688,32,3 AV/E 67 ST,40.767113,-73.962513,19.0,1,,False
0,M103,403432,34,3 AV/E 72 ST,40.770075,-73.960281,19.0,1,,False
0,M103,403433,37,3 AV/E 79 ST,40.774605,-73.95697,19.0,1,,False
0,M103,403434,39,3 AV/E 86 ST,40.778466,-73.954179,19.0,1,,False
0,M103,403545,29,3 AV/E 60 ST,40.762558,-73.965738,19.0,1,,False
0,M103,450051,30,3 AV/E 63 ST,40.764143,-73.964582,19.0,1,,False
0,M103,402687,31,3 AV/E 65 ST,40.765599,-73.963509,19.0,1,,False
0,M103,402689,33,3 AV/E 69 ST,40.768112,-73.961718,19.0,1,,False
0,M103,402691,35,3 AV/E 75 ST,40.771857,-73.959001,19.0,1,,False
0,M103,402692,36,3 AV/E 77 ST,40.773208,-73.95799,19.0,1,,False
0,M103,402694,38,3 AV/E 82 ST,40.776582,-73.955559,19.0,1,,False
0,M103,402696,40,3 AV/E 88 ST,40.780478,-73.952701,19.0,1,,False
0,M103,402697,41,3 AV/E 91 ST,40.782258,-73.951426,19.0,1,,False
0,M103,403765,42,3 AV/E 93 ST,40.783505,-73.950493,19.0,1,,False
0,M66,403494,7,E 65 ST/5 AV,40.767811,-73.969931,19.0,1,,False
0,M66,400027,8,MADISON AV/E 65 ST,40.76758,-73.968375,19.0,1,,False
0,M66,403495,9,E 68 ST/MADISON AV,40.768993,-73.966909,19.0,1,,False
0,M66,403497,10,E 68 ST/LEXINGTON AV,40.76765,-73.963704,19.0,1,,False
0,M66,403993,11,E 68 ST/3 AV,40.766964,-73.962076,19.0,1,,False
0,M66,403994,12,E 68 ST/2 AV,40.766263,-73.96043,19.0,1,,False
0,M66,403995,13,E 68 ST/1 AV,40.76503,-73.957496,19.0,1,,False
0,M66,403996,14,EAST 68 ST/YORK AV,40.764252,-73.95575,19.0,1,,False
0,M79+,401870,7,E 79 ST/5 AV,40.776768,-73.963421,19.0,1,,True
0,M79+,404858,8,E 79 ST/MADISON AV,40.77604,-73.961688,19.0,1,,True
0,M79+,405169,9,E 79 ST/LEXINGTON AV,40.774947,-73.959139,19.0,1,,True
0,M79+,405369,10,E 79 ST/3 AV,40.774263,-73.957413,19.0,1,,True
0,M79+,401875,11,E 79 ST/2 AV,40.773093,-73.9547,19.0,1,,True
0,M79+,401876,12,E 79 ST/1 AV,40.772051,-73.952224,19.0,1,,True
0,M79+,401877,13,YORK AV/E 79 ST,40.77158,-73.950235,19.0,1,,True
0,M79+,401878,14,E 80 ST/EAST END AV,40.771092,-73.94777,19.0,1,,True
0,M86+,401901,7,E 84 ST/5 AV,40.779814,-73.960631,19.0,1,,True
0,M86+,401903,8,E 86 ST/MADISON AV,40.780626,-73.958485,19.0,1,,True
0,M86+,401905,9,E 86 ST/LEXINGTON  AV,40.779177,-73.954877,19.0,1,,True
0,M86+,401906,10,E 86 ST/3 AV,40.778463,-73.953302,19.0,1,,True
0,M86+,404681,11,E 86 ST/2 AV,40.77759,-73.951259,19.0,1,,True
0,M86+,401908,12,E 86 ST/1 AV,40.776744,-73.949236,19.0,1,,True
0,M86+,401909,13,YORK AV/E 86 ST,40.776343,-73.946753,19.0,1,,True
0,M86+,401910,14,YORK AV/E 88 ST,40.777473,-73.94591,19.0,1,,True
0,M86+,403367,15,E 91 ST/YORK AV,40.779214,-73.944942,19.0,1,,True
0,M86+,403383,16,1 AV/E 91 ST,40.780248,-73.946809,19.0,1,,True
0,M4,400029,15,MADISON AV/E 69 ST,40.770075,-73.966558,19.0,1,,False
0,M4,400028,14,MADISON AV/E 67 ST,40.768812,-73.967483,19.0,1,,False
0,M4,400030,16,MADISON AV/E 72 ST,40.771802,-73.965308,19.0,1,,False
0,M4,400033,19,MADISON AV/E 81 ST,40.777452,-73.961191,19.0,1,,False
0,M4,400036,21,MADISON AV/E 86 ST,40.781155,-73.958483,19.0,1,,False
0,M4,404191,25,MADISON AV/E 95 ST,40.78708,-73.954126,19.0,1,,False
0,M4,400364,11,MADISON AV/E 60  ST,40.764673,-73.970473,19.0,1,,False
0,M4,400026,12,MADISON AV/E 63 ST,40.766274,-73.969329,19.0,1,,False
0,M4,404994,13,MADISON AV/E 66 ST,40.767836,-73.968184,19.0,1,,False
0,M4,400031,17,MADISON AV/E 74 ST,40.772774,-73.96461,19.0,1,,False
0,M4,400032,18,MADISON AV/E 77 ST,40.775322,-73.962739,19.0,1,,False
0,M4,400034,20,MADISON AV/E 83 ST,40.778793,-73.960206,19.0,1,,False
0,M4,400037,22,MADISON AV/E 89 ST,40.782676,-73.957373,19.0,1,,False
0,M4,400038,23,MADISON AV/E 91 ST,40.78436,-73.956137,19.0,1,,False
0,M4,400039,24,MADISON AV/E 93 ST,40.785636,-73.955205,19.0,1,,False
0,M101,402688,23,3 AV/E 67 ST,40.767113,-73.962513,19.0,1,,False
0,M101,403432,25,3 AV/E 72 ST,40.770075,-73.960281,19.0,1,,False
0,M101,403433,28,3 AV/E 79 ST,40.774605,-73.95697,19.0,1,,False
0,M101,403434,30,3 AV/E 86 ST,40.778466,-73.954179,19.0,1,,False
0,M101,403545,20,3 AV/E 60 ST,40.762558,-73.965738,19.0,1,,False
0,M101,450051,21,3 AV/E 63 ST,40.764143,-73.964582,19.0,1,,False
0,M101,402687,22,3 AV/E 65 ST,40.765599,-73.963509,19.0,1,,False
0,M101,402689,24,3 AV/E 69 ST,40.768112,-73.961718,19.0,1,,False
0,M101,402691,26,3 AV/E 75 ST,40.771857,-73.959001,19.0,1,,False
0,M101,402692,27,3 AV/E 77 ST,40.773208,-73.95799,19.0,1,,False
0,M101,402694,29,3 AV/E 82 ST,40.776582,-73.955559,19.0,1,,False
0,M101,402696,31,3 AV/E 88 ST,40.780478,-73.952701,19.0,1,,False
0,M101,402697,32,3 AV/E 91 ST,40.782258,-73.951426,19.0,1,,False
0,M101,403765,33,3 AV/E 93 ST,40.783505,-73.950493,19.0,1,,False
0,M106,803180,6,E 96 ST/5 AV,40.787657,-73.955416,19.0,1,,False
0,M96,404087,6,E 96 ST/5 AV,40.787657,-73.955416,19.0,1,,False
0,M96,401939,7,E 96 ST/MADISON AV,40.786986,-73.953853,19.0,1,,False
0,M96,401941,8,E 96 ST/LEXINGTON AV,40.785852,-73.951207,19.0,1,,False
0,M96,401942,9,E 96 ST/3 AV,40.784948,-73.948998,19.0,1,,False
0,M96,401943,10,E 96 ST/2 AV,40.784068,-73.946933,19.0,1,,False
0,M98,402688,1,3 AV/E 67 ST,40.767113,-73.962513,19.0,1,,False
0,M98,403432,2,3 AV/E 72 ST,40.770075,-73.960281,19.0,1,,False
0,M98,403433,3,3 AV/E 79 ST,40.774605,-73.95697,19.0,1,,False
0,M98,403434,4,3 AV/E 86 ST,40.778466,-73.954179,19.0,1,,False
0,M102,402688,23,3 AV/E 67 ST,40.767113,-73.962513,19.0,1,,False
0,M102,403432,25,3 AV/E 72 ST,40.770075,-73.960281,19.0,1,,False
0,M102,403433,28,3 AV/E 79 ST,40.774605,-73.95697,19.0,1,,False
0,M102,403434,30,3 AV/E 86 ST,40.778466,-73.954179,19.0,1,,False
0,M102,403545,20,3 AV/E 60 ST,40.762558,-73.965738,19.0,1,,False
0,M102,450051,21,3 AV/E 63 ST,40.764143,-73.964582,19.0,1,,False
0,M102,402687,22,3 AV/E 65 ST,40.765599,-73.963509,19.0,1,,False
0,M102,402689,24,3 AV/E 69 ST,40.768112,-73.961718,19.0,1,,False
0,M102,402691,26,3 AV/E 75 ST,40.771857,-73.959001,19.0,1,,False
0,M102,402692,27,3 AV/E 77 ST,40.773208,-73.95799,19.0,1,,False
0,M102,402694,29,3 AV/E 82 ST,40.776582,-73.955559,19.0,1,,False
0,M102,402696,31,3 AV/E 88 ST,40.780478,-73.952701,19.0,1,,False
0,M102,402697,32,3 AV/E 91 ST,40.782258,-73.951426,19.0,1,,False
0,M102,403765,33,3 AV/E 93 ST,40.783505,-73.950493,19.0,1,,False
0,M12,403897,2,W 14 ST/8 AV,40.740027,-74.002966,10.0,1,,False
0,M12,405265,3,W 14 ST/9 AV,40.741148,-74.005521,10.0,1,,False
0,M12,405152,4, W 14 St/10 AV,40.742056,-74.007914,10.0,1,,False
0,M12,405157,5,11 AV/W 15 ST,40.743388,-74.0084,10.0,1,,False
0,M12,404926,7,W 24 St/11 AV,40.749997,-74.007489,10.0,1,,False
0,M12,405531,6,11 AV/ W 18 ST,40.745731,-74.007993,10.0,1,,False
0,M12,405455,8,12 AV/ W 27 ST,40.752215,-74.007578,10.0,1,,False
0,M12,405456,9,12 AV/W 30 ST,40.75484,-74.006232,10.0,1,,False
0,M12,405457,10,12 AV/W 33 ST,40.756398,-74.005125,10.0,1,,False
0,M12,405458,11,12 AV/ W 40 ST,40.760765,-74.001924,10.0,1,,False
0,M20,401223,21,8 AV/W 14 ST,40.739885,-74.002263,10.0,1,,False
0,M20,401224,22,8 AV/W 17 ST,40.741899,-74.000808,10.0,1,,False
0,M20,401225,23,8 AV/W 20 ST,40.743642,-73.999538,10.0,1,,False
0,M20,401226,24,8 AV/W 23 ST,40.745586,-73.998123,10.0,1,,False
0,M20,401227,25,8 AV/W 25 ST,40.746845,-73.997203,10.0,1,,False
0,M20,401229,26,8 AV/W 28 ST,40.748684,-73.995864,10.0,1,,False
0,M14D+,450222,1,W 18 ST / 10 AV,40.744323,-74.005938,10.0,1,,True
0,M14D+,401507,2,9 AV/W 18 ST,40.7432,-74.003816,10.0,1,,True
0,M34+,803131,1,W 34 ST/12 AV,40.756534,-74.003941,10.0,1,,True
0,M34+,403191,2,W 34 ST/11 AV,40.755718,-74.001906,10.0,1,,True
0,M34+,403192,3,W 34 ST/10 AV,40.75433,-73.998776,10.0,1,,True
0,M34A+,803099,1,9 AV/W 42 ST,40.758617,-73.99264,10.0,1,,True
0,M34A+,405026,2,9 AV/W 40 ST,40.756899,-73.993896,10.0,1,,True
0,M23+,404137,1,12 AV/W 23 ST,40.748728,-74.007954,10.0,1,,True
0,M23+,404927,2,W 24 ST/12 AV,40.749969,-74.007803,10.0,1,,True
0,M23+,404834,3,W 23 ST/11 AV,40.748632,-74.006633,10.0,1,,True
0,M23+,402124,4,W 23 ST/10 AV,40.747425,-74.003764,10.0,1,,True
0,M23+,402125,5,W 23 ST/9 AV,40.746244,-74.000956,10.0,1,,True
0,M23+,402126,6,W 23 ST/8 AV,40.745059,-73.998141,10.0,1,,True
0,M11,405265,3,W 14 ST/9 AV,40.741148,-74.005521,10.0,1,,False
0,M11,405152,4, W 14 St/10 AV,40.742056,-74.007914,10.0,1,,False
0,M11,405151,5,10 AV/WEST 16 ST,40.743645,-74.007041,10.0,1,,False
0,M11,404161,6,10 AV/W 19 ST,40.745426,-74.005684,10.0,1,,False
0,M11,401398,7,10 AV/W 21 ST,40.746615,-74.004825,10.0,1,,False
0,M11,403802,8,10 AV/W 23 ST,40.747927,-74.003847,10.0,1,,False
0,M11,401400,9,10 AV/W 25 ST,40.749222,-74.002905,10.0,1,,False
0,M11,401401,10,10 AV/W 27 ST,40.750041,-74.002353,10.0,1,,False
0,M11,401402,11,10 AV/W 30 ST,40.752373,-74.000606,10.0,1,,False
0,M11,903267,12,10 AV/W 34 ST,40.75468,-73.999023,10.0,1,,False
0,M11,404279,13,10 AV/W 37 ST,40.756715,-73.997444,10.0,1,,False
0,M11,405512,14,10 AV/W 40 ST,40.758404,-73.996324,10.0,1,,False
0,M11,401407,15,10 AV/W 42 ST,40.759847,-73.995181,10.0,1,,False
0,M42,803055,1,12 AV/42 ST,40.762148,-74.00144,10.0,1,,False
0,M42,401812,2,W 42 ST/12 AV,40.761908,-74.001056,10.0,1,,False
0,M42,401813,3,W 42 ST/11 AV,40.760542,-73.997928,10.0,1,,False
0,M42,401814,4,W 42 ST/10 AV,40.759359,-73.995076,10.0,1,,False
0,M50,803055,1,12 AV/42 ST,40.762148,-74.00144,10.0,1,,False
0,M12,405452,1,8 Av/W 12 ST,40.737903,-74.004356,6.0,1,,False
0,M14A+,401608,1,8 AV/BLEECKER ST,40.737379,-74.004929,6.0,1,,True
0,M14A+,401575,2,W 14 ST/8 AV,40.739621,-74.002394,6.0,1,,True
0,M14A+,401294,3,W 14 ST/7 AV,40.738287,-73.999271,6.0,1,,True
0,M14A+,401577,4,W 14 ST/6 AV,40.737093,-73.996431,6.0,1,,True
0,M14A+,401579,5,E 14 ST/UNIVERSITY PL,40.735221,-73.991933,6.0,1,,True
0,M20,401608,19,8 AV/BLEECKER ST,40.737379,-74.004929,6.0,1,,False
0,M20,401302,15,HUDSON ST/W HOUSTON ST,40.728924,-74.00704,6.0,1,,False
0,M20,404133,16,HUDSON ST/BARROW ST,40.731571,-74.006534,6.0,1,,False
0,M20,401453,17,HUDSON ST/CHRISTOPHER ST,40.733347,-74.00626,6.0,1,,False
0,M20,401220,18,HUDSON ST/PERRY ST,40.735435,-74.005921,6.0,1,,False
0,M20,401609,20,8 AV/W 4 ST,40.738597,-74.003533,6.0,1,,False
0,M14D+,401575,4,W 14 ST/8 AV,40.739621,-74.002394,6.0,1,,True
0,M14D+,401294,5,W 14 ST/7 AV,40.738287,-73.999271,6.0,1,,True
0,M14D+,401577,6,W 14 ST/6 AV,40.737093,-73.996431,6.0,1,,True
0,M14D+,401579,7,E 14 ST/UNIVERSITY PL,40.735221,-73.991933,6.0,1,,True
0,M14D+,404286,3,W 14 ST/HUDSON ST,40.74062,-74.004803,6.0,1,,True
0,M55,400919,16,6 AV/W HOUSTON ST,40.7287,-74.00254,6.0,1,,False
0,M55,400722,17,AV OF THE AMERICAS/W 3 ST,40.730879,-74.001389,6.0,1,,False
0,M55,400723,18,AV OF THE AMERICAS/WAVERLY PL,40.733006,-73.999838,6.0,1,,False
0,M55,400724,19,AV OF THE AMERICAS/W 10 ST,40.734865,-73.998466,6.0,1,,False
0,M55,400725,20,AV OF THE AMERICAS/W 12 ST,40.736155,-73.997539,6.0,1,,False
0,M8,401528,1,WEST ST/CHRISTOPHER ST,40.732847,-74.010081,6.0,1,,False
0,M8,401529,2,W 10 ST/WASHINGTON ST,40.73331,-74.008708,6.0,1,,False
0,M8,403313,3,W 10 ST/GREENWICH ST,40.733501,-74.007459,6.0,1,,False
0,M8,403312,4,W 10 ST/HUDSON ST,40.733775,-74.005849,6.0,1,,False
0,M8,401531,5,W 10 ST/BLEECKER ST,40.734005,-74.004254,6.0,1,,False
0,M8,401532,6,W 10 ST/7 AV S,40.734228,-74.002587,6.0,1,,False
0,M8,401533,7,W 10 ST/WAVERLY PL,40.734489,-74.001021,6.0,1,,False
0,M8,401535,8,GREENWICH AV/CHRISTOPHER ST,40.734143,-73.999729,6.0,1,,False
0,M8,401536,9,W 8 ST/AV OF THE AMERICAS,40.733369,-73.999159,6.0,1,,False
0,M8,401538,10,W 8 ST/5 AV,40.732336,-73.996709,6.0,1,,False
0,M8,400336,11,E 8 ST/UNIVERSITY PL,40.731417,-73.994502,6.0,1,,False
0,M8,400337,12,E 8 ST/MERCER ST,40.730576,-73.99259,6.0,1,,False
0,M11,401393,1,BETHUNE ST/GREENWICH ST,40.736989,-74.006358,6.0,1,,False
0,M11,405120,2,GREENWICH ST/HORATIO ST,40.738674,-74.006416,6.0,1,,False
0,M5,400933,2,AV OF THE AMERICAS/W 34 ST,40.74986,-73.987669,14.0,1,,False
0,M5,404039,3,AV OF THE AMERICAS/W 38 ST,40.752139,-73.985967,14.0,1,,False
0,M5,404040,4,AV OF THE AMERICAS/W 40 ST,40.753709,-73.984732,14.0,1,,False
0,M5,400936,5,AV OF THE AMERICAS/W 42 ST,40.755109,-73.983786,14.0,1,,False
0,M5,803083,1,6 AV/W 31 ST,40.748042,-73.988957,14.0,1,,False
0,M20,404847,27,8 AV/W 31 ST,40.749952,-73.994947,14.0,1,,False
0,M20,401231,28,8 AV/W 34 ST,40.752329,-73.993258,14.0,1,,False
0,M20,401232,29,8 AV/W 37 ST,40.75396,-73.992034,14.0,1,,False
0,M20,401850,30,8 AV/W 40 ST,40.756261,-73.990408,14.0,1,,False
0,M20,404919,31,8 AV/W 43 ST,40.758004,-73.989093,14.0,1,,False
0,M55,403769,27,AV OF THE AMERICAS/W 31 ST,40.747987,-73.988909,14.0,1,,False
0,M55,400933,28,AV OF THE AMERICAS/W 34 ST,40.74986,-73.987669,14.0,1,,False
0,M55,404039,29,AV OF THE AMERICAS/W 38 ST,40.752139,-73.985967,14.0,1,,False
0,M55,404040,30,AV OF THE AMERICAS/W 40 ST,40.753709,-73.984732,14.0,1,,False
0,M55,400936,31,AV OF THE AMERICAS/W 42 ST,40.755109,-73.983786,14.0,1,,False
0,M55,803081,32,W 44 St/6 AV,40.755986,-73.982997,14.0,1,,False
0,M2,400561,14,MADISON AV/E 42 ST,40.753337,-73.978759,14.0,1,,False
0,M2,400352,10,MADISON AV/E 30 ST,40.74551,-73.984493,14.0,1,,False
0,M2,403457,13,MADISON AV/E 40  ST,40.752018,-73.979743,14.0,1,,False
0,M1,400561,19,MADISON AV/E 42 ST,40.753337,-73.978759,14.0,1,,False
0,M1,400352,15,MADISON AV/E 30 ST,40.74551,-73.984493,14.0,1,,False
0,M1,403457,18,MADISON AV/E 40  ST,40.752018,-73.979743,14.0,1,,False
0,M3,400561,14,MADISON AV/E 42 ST,40.753337,-73.978759,14.0,1,,False
0,M3,400352,10,MADISON AV/E 30 ST,40.74551,-73.984493,14.0,1,,False
0,M3,403457,13,MADISON AV/E 40  ST,40.752018,-73.979743,14.0,1,,False
0,M34+,401818,4,W 34 ST/9 AV,40.753106,-73.995857,14.0,1,,True
0,M34+,401819,5,W 34 ST/8 AV,40.751988,-73.993312,14.0,1,,True
0,M34+,404820,6,W 34 ST/7 AV,40.751116,-73.991115,14.0,1,,True
0,M34+,401821,7,W 34 ST/BROADWAY,40.749624,-73.987617,14.0,1,,True
0,M34+,401822,8,E 34 ST/5 AV,40.748192,-73.984134,14.0,1,,True
0,M34+,401824,9,E 34 ST/PARK AV,40.746797,-73.98089,14.0,1,,True
0,M34A+,401818,3,W 34 ST/9 AV,40.753106,-73.995857,14.0,1,,True
0,M34A+,401819,4,W 34 ST/8 AV,40.751988,-73.993312,14.0,1,,True
0,M34A+,404820,5,W 34 ST/7 AV,40.751116,-73.991115,14.0,1,,True
0,M34A+,401821,6,W 34 ST/BROADWAY,40.749624,-73.987617,14.0,1,,True
0,M34A+,401822,7,E 34 ST/5 AV,40.748192,-73.984134,14.0,1,,True
0,M34A+,401824,8,E 34 ST/PARK AV,40.746797,-73.98089,14.0,1,,True
0,M7,403769,7,AV OF THE AMERICAS/W 31 ST,40.747987,-73.988909,14.0,1,,False
0,M7,400933,8,AV OF THE AMERICAS/W 34 ST,40.74986,-73.987669,14.0,1,,False
0,M7,404039,9,AV OF THE AMERICAS/W 38 ST,40.752139,-73.985967,14.0,1,,False
0,M7,404040,10,AV OF THE AMERICAS/W 40 ST,40.753709,-73.984732,14.0,1,,False
0,M7,400936,11,AV OF THE AMERICAS/W 42 ST,40.755109,-73.983786,14.0,1,,False
0,M104,404919,2,8 AV/W 43 ST,40.758004,-73.989093,14.0,1,,False
0,M104,405374,1,W 41 ST/8 AV,40.756549,-73.990123,14.0,1,,False
0,M4,400561,5,MADISON AV/E 42 ST,40.753337,-73.978759,14.0,1,,False
0,M4,403457,4,MADISON AV/E 40  ST,40.752018,-73.979743,14.0,1,,False
0,M4,400353,1,32 ST/MADISON AV,40.746555,-73.984226,14.0,1,,False
0,M42,403238,5,W 42 ST/9 AV,40.757961,-73.991925,14.0,1,,False
0,M42,403239,6,W 42 ST/8 AV,40.757191,-73.989904,14.0,1,,False
0,M42,403240,7,W 42 ST/7 AV,40.756259,-73.987735,14.0,1,,False
0,M42,403241,8,W 42 ST/BROADWAY,40.755271,-73.985338,14.0,1,,False
0,M42,403242,9,W 42 ST/6 AV,40.754535,-73.98364,14.0,1,,False
0,M42,403465,10,W 42 ST/5 AV,40.753319,-73.980751,14.0,1,,False
0,M42,404160,11,E 42 ST/MADISON AV,40.752533,-73.978889,14.0,1,,False
0,M42,403459,12,E 42 ST/PARK AV,40.75188,-73.97733,14.0,1,,False
0,M5,903236,42,BROADWAY/W 135 ST,40.820642,-73.954489,30.0,1,,False
0,M5,400609,43,BROADWAY/W 137 ST,40.82124,-73.954014,30.0,1,,False
0,M5,400610,44,BROADWAY/W 139 ST,40.822815,-73.952874,30.0,1,,False
0,M5,400611,45,BROADWAY/W 141 ST,40.82408,-73.951948,30.0,1,,False
0,M5,400612,46,BROADWAY/W 143 ST,40.825312,-73.951051,30.0,1,,False
0,M5,400613,47,BROADWAY/W 145 ST,40.826791,-73.94997,30.0,1,,False
0,M5,400614,48,BROADWAY/W 147 ST,40.827916,-73.949145,30.0,1,,False
0,M5,400615,49,BROADWAY/W 149 ST,40.829167,-73.948237,30.0,1,,False
0,M5,400616,50,BROADWAY/W 151 ST,40.830413,-73.947322,30.0,1,,False
0,M5,400617,51,BROADWAY/W 153 ST,40.831697,-73.946385,30.0,1,,False
0,M5,404019,41,W 135 ST/RIVERSIDE DR,40.820863,-73.957,30.0,1,,False
0,M3,400405,59,ST NICHOLAS AV/W 144 ST,40.823278,-73.945037,30.0,1,,False
0,M3,400406,60,ST NICHOLAS AV/W 145 ST,40.824338,-73.944408,30.0,1,,False
0,M3,405227,61,ST NICHOLAS AV/W 147 ST,40.825404,-73.943522,30.0,1,,False
0,M3,400408,62,ST NICHOLAS AV/W 151 ST,40.828325,-73.942272,30.0,1,,False
0,M3,400409,63,ST NICHOLAS AV/W 153 ST,40.829645,-73.941744,30.0,1,,False
0,M11,403757,54,W 135 ST/AMSTERDAM AV,40.819159,-73.95262,30.0,1,,False
0,M11,404011,55,W 135 ST/BROADWAY,40.82044,-73.955723,30.0,1,,False
0,M11,404012,56,W 135 ST/RIVERSIDE DR,40.821025,-73.957034,30.0,1,,False
0,M11,404013,57,RIVERSIDE DR/W 137 ST,40.822435,-73.955855,30.0,1,,False
0,M11,404056,58,RIVERSIDE DR/W 139 ST,40.823431,-73.955324,30.0,1,,False
0,M11,404014,59,RIVERSIDE DR/W 142 ST,40.825464,-73.953302,30.0,1,,False
0,M11,404015,60,RIVERSIDE DR/W 144 ST,40.826652,-73.952228,30.0,1,,False
0,M11,803194,61,RIVERBANK/STATE PARK,40.826815,-73.955386,30.0,1,,False
0,M4,903236,49,BROADWAY/W 135 ST,40.820642,-73.954489,30.0,1,,False
0,M4,400609,50,BROADWAY/W 137 ST,40.82124,-73.954014,30.0,1,,False
0,M4,400610,51,BROADWAY/W 139 ST,40.822815,-73.952874,30.0,1,,False
0,M4,400611,52,BROADWAY/W 141 ST,40.82408,-73.951948,30.0,1,,False
0,M4,400612,53,BROADWAY/W 143 ST,40.825312,-73.951051,30.0,1,,False
0,M4,400613,54,BROADWAY/W 145 ST,40.826791,-73.94997,30.0,1,,False
0,M4,400614,55,BROADWAY/W 147 ST,40.827916,-73.949145,30.0,1,,False
0,M4,400615,56,BROADWAY/W 149 ST,40.829167,-73.948237,30.0,1,,False
0,M4,400616,57,BROADWAY/W 151 ST,40.830413,-73.947322,30.0,1,,False
0,M4,400617,58,BROADWAY/W 153 ST,40.831697,-73.946385,30.0,1,,False
0,M101,402520,61,AMSTERDAM AV/W 143 ST,40.824241,-73.94826,30.0,1,,False
0,M101,402521,62,AMSTERDAM AV/W 145 ST,40.825615,-73.947231,30.0,1,,False
0,M101,405103,63,AMSTERDAM AV/W 149 ST,40.827662,-73.945755,30.0,1,,False
0,M101,405074,64,AMSTERDAM AV/W 152 ST,40.829905,-73.944107,30.0,1,,False
0,M5,400618,52,BROADWAY/W 155 ST,40.832992,-73.945441,33.0,1,,False
0,M5,400619,53,BROADWAY/W 157 ST,40.834257,-73.944519,33.0,1,,False
0,M5,400620,54,BROADWAY/W 159 ST,40.835516,-73.9436,33.0,1,,False
0,M5,400621,55,BROADWAY/W 161 ST,40.83674,-73.942702,33.0,1,,False
0,M5,400622,56,BROADWAY/W 163 ST,40.838005,-73.941772,33.0,1,,False
0,M5,400623,57,BROADWAY/W 165 ST,40.839363,-73.940785,33.0,1,,False
0,M5,400624,58,BROADWAY/W 168 ST,40.840308,-73.94011,33.0,1,,False
0,M5,400796,59,BROADWAY/W 171 ST,40.843509,-73.939006,33.0,1,,False
0,M5,402535,60,BROADWAY/W 173 ST,40.844953,-73.938676,33.0,1,,False
0,M5,400798,61,BROADWAY/W 175 ST,40.846487,-73.938292,33.0,1,,False
0,M5,903231,62,W 178 ST/BROADWAY,40.848234,-73.937485,33.0,1,,False
0,M2,400248,64,EDGECOMBE AV/W 155 ST,40.830904,-73.940279,33.0,1,,False
0,M2,400249,65,EDGECOMBE AV/W 158 ST,40.832912,-73.939461,33.0,1,,False
0,M2,400250,66,EDGECOMBE AV/W 160 ST,40.834045,-73.938133,33.0,1,,False
0,M2,400251,67,EDGECOMBE AV/W 162 ST,40.835242,-73.937496,33.0,1,,False
0,M2,400252,68,EDGECOMBE AV/W 164 ST,40.836657,-73.936852,33.0,1,,False
0,M2,403907,69,W 165 ST/AMSTERDAM AV,40.837871,-73.938159,33.0,1,,False
0,M2,403908,70,AUDUBON AV/W 165 ST,40.839052,-73.939318,33.0,1,,False
0,M2,404876,71,W 168 ST/AUDUBON AV,40.840581,-73.938431,33.0,1,,False
0,M3,402526,64,AMSTERDAM AV/W 155 ST,40.831683,-73.942827,33.0,1,,False
0,M3,405073,65,AMSTERDAM AV/W 158 ST,40.833638,-73.941374,33.0,1,,False
0,M3,404853,66,AMSTERDAM AV/W 161 ST,40.835239,-73.940199,33.0,1,,False
0,M3,400414,67,ST NICHOLAS AV/W 163 ST,40.837027,-73.940079,33.0,1,,False
0,M3,405111,68,ST NICHOLAS AV/W 165 ST,40.838389,-73.93981,33.0,1,,False
0,M3,404066,69,ST NICHOLAS AV/W 167 ST,40.840879,-73.939441,33.0,1,,False
0,M3,400418,70,ST NICHOLAS AV/W 170 ST,40.842529,-73.938555,33.0,1,,False
0,M3,400419,71,ST NICHOLAS AV/W 173 ST,40.844406,-73.937188,33.0,1,,False
0,M3,403975,72,ST NICHOLAS AV/W 176 ST,40.846368,-73.935747,33.0,1,,False
0,M4,400618,59,BROADWAY/W 155 ST,40.832992,-73.945441,33.0,1,,False
0,M4,400619,60,BROADWAY/W 157 ST,40.834257,-73.944519,33.0,1,,False
0,M4,400620,61,BROADWAY/W 159 ST,40.835516,-73.9436,33.0,1,,False
0,M4,400621,62,BROADWAY/W 161 ST,40.83674,-73.942702,33.0,1,,False
0,M4,400622,63,BROADWAY/W 163 ST,40.838005,-73.941772,33.0,1,,False
0,M4,404920,64,FT WASHINGTON AV/W 165 ST,40.840558,-73.942825,33.0,1,,False
0,M4,404921,65,FT WASHINGTON AV/W 168 ST,40.842408,-73.94209,33.0,1,,False
0,M4,400626,66,FT WASHINGTON AV/W 171 ST,40.844315,-73.940871,33.0,1,,False
0,M4,400627,67,FT WASHINGTON AV/W 173 ST,40.8457,-73.940298,33.0,1,,False
0,M4,400628,68,FT WASHINGTON AV/W 175 ST,40.846825,-73.939845,33.0,1,,False
0,M4,400629,69,FT WASHINGTON AV/W 177 ST,40.847906,-73.939407,33.0,1,,False
0,M4,400630,70,FT WASHINGTON AV/W 179 ST,40.849229,-73.938932,33.0,1,,False
0,M101,402526,65,AMSTERDAM AV/W 155 ST,40.831683,-73.942827,33.0,1,,False
0,M101,405073,66,AMSTERDAM AV/W 158 ST,40.833638,-73.941374,33.0,1,,False
0,M101,404853,67,AMSTERDAM AV/W 161 ST,40.835239,-73.940199,33.0,1,,False
0,M101,405075,68,AMSTERDAM AV/W 164 ST,40.837468,-73.938575,33.0,1,,False
0,M101,405076,69,AMSTERDAM AV/W 167 ST,40.839672,-73.93697,33.0,1,,False
0,M101,402740,70,AMSTERDAM AV/W 171 ST,40.841978,-73.935267,33.0,1,,False
0,M101,402741,71,AMSTERDAM AV/W 173 ST,40.84312,-73.934443,33.0,1,,False
0,M101,405077,72,AMSTERDAM AV/W 176 ST,40.84515,-73.932962,33.0,1,,False
0,M5,400943,12,CENTRAL PK S/6 AV,40.766128,-73.977019,22.0,1,,False
0,M5,401014,13,CENTRAL PK S/7 AV,40.767201,-73.979581,22.0,1,,False
0,M5,401015,14,CENTRAL PK S/COLUMBUS CI,40.767838,-73.981242,22.0,1,,False
0,M20,903209,36,Columbus Circle (does not stop),40.768164,-73.981327,22.0,1,,False
0,M20,404871,37,CENTRAL PK W/COLUMBUS CIR,40.768686,-73.98134,22.0,1,,False
0,M20,404049,38,CENTRAL PK W/W 63 ST,40.770657,-73.979873,22.0,1,,False
0,M7,400943,18,CENTRAL PK S/6 AV,40.766128,-73.977019,22.0,1,,False
0,M7,401014,19,CENTRAL PK S/7 AV,40.767201,-73.979581,22.0,1,,False
0,M7,401015,20,CENTRAL PK S/COLUMBUS CI,40.767838,-73.981242,22.0,1,,False
0,M10,903209,2,Columbus Circle (does not stop),40.768164,-73.981327,22.0,1,,False
0,M10,404871,3,CENTRAL PK W/COLUMBUS CIR,40.768686,-73.98134,22.0,1,,False
0,M10,404049,4,CENTRAL PK W/W 63 ST,40.770657,-73.979873,22.0,1,,False
0,M10,401245,5,CENTRAL PK W/W 67 ST,40.772641,-73.978424,22.0,1,,False
0,M10,403981,6,CENTRAL PK W/W 69 ST,40.77451,-73.97707,22.0,1,,False
0,M10,401248,7,CENTRAL PK W/W 72 ST,40.776516,-73.975596,22.0,1,,False
0,M10,404024,8,CENTRAL PK W/W 75 ST,40.778511,-73.97414,22.0,1,,False
0,M10,401250,9,CENTRAL PK W/W 77 ST,40.779818,-73.97319,22.0,1,,False
0,M10,404134,10,CENTRAL PK W/W 79 ST,40.781149,-73.972233,22.0,1,,False
0,M10,401252,11,CENTRAL PK W/W 82 ST,40.782564,-73.971263,22.0,1,,False
0,M10,401253,12,CENTRAL PK W/W 84 ST,40.784035,-73.970126,22.0,1,,False
0,M10,401254,13,CENTRAL PK W/W 87 ST,40.78585,-73.96887,22.0,1,,False
0,M10,401255,14,CENTRAL PK W/W 88 ST,40.786848,-73.968059,22.0,1,,False
0,M10,401256,15,CENTRAL PK W/W 90 ST,40.788071,-73.967205,22.0,1,,False
0,M10,401257,16,CENTRAL PK W/W 92 ST,40.789324,-73.966253,22.0,1,,False
0,M10,401258,17,CENTRAL PK W/W 94 ST,40.790539,-73.965364,22.0,1,,False
0,M10,401259,18,CENTRAL PK W/W 97 ST,40.792222,-73.964215,22.0,1,,False
0,M10,401261,19,CENTRAL PK W/W 100 ST,40.794507,-73.962472,22.0,1,,False
0,M10,401262,20,CENTRAL PK W/W 102 ST,40.79575,-73.961561,22.0,1,,False
0,M10,401263,21,CENTRAL PK W/W 104 ST,40.797034,-73.960632,22.0,1,,False
0,M10,401264,22,CENTRAL PK W/W 106 ST,40.798297,-73.959714,22.0,1,,False
0,M10,401265,23,CENTRAL PK W/W 108 ST,40.799706,-73.958746,22.0,1,,False
0,M104,903209,7,Columbus Circle (does not stop),40.768164,-73.981327,22.0,1,,False
0,M79+,401869,6,E 79 ST TRANSVERSE/E 79 ST TRANSVERSE,40.778765,-73.968554,22.0,1,,True
0,M86+,401900,6,W 86 ST/TRANSVERSE,40.784565,-73.967494,22.0,1,,True
0,M5,400760,26,RIVERSIDE DR/W 87 ST,40.790737,-73.979671,24.0,1,,False
0,M5,400761,27,RIVERSIDE DR/W 89 ST,40.791852,-73.978234,24.0,1,,False
0,M5,400762,28,RIVERSIDE DR/W 91 ST,40.792603,-73.977074,24.0,1,,False
0,M5,404054,29,RIVERSIDE DR/W 94 ST,40.794693,-73.976593,24.0,1,,False
0,M5,400764,30,RIVERSIDE DR/W 97 ST,40.79649,-73.974307,24.0,1,,False
0,M5,403902,31,RIVERSIDE DR/W 100 ST,40.798851,-73.973449,24.0,1,,False
0,M5,404104,32,RIVERSIDE DR/W 103 ST,40.800432,-73.971727,24.0,1,,False
0,M5,400768,33,RIVERSIDE DR/W 106 ST,40.802241,-73.970219,24.0,1,,False
0,M5,400769,34,RIVERSIDE DR/W 108 ST,40.803674,-73.969149,24.0,1,,False
0,M7,401027,31,AMSTERDAM AV/W 86 ST,40.787953,-73.974696,24.0,1,,False
0,M7,404320,32,AMSTERDAM AV/W 89 ST,40.78949,-73.973569,24.0,1,,False
0,M7,401029,33,AMSTERDAM AV/W 91 ST,40.791085,-73.972405,24.0,1,,False
0,M7,401030,34,AMSTERDAM AV/W 93 ST,40.792344,-73.97148,24.0,1,,False
0,M7,401031,35,AMSTERDAM AV/W 96 ST,40.794323,-73.970039,24.0,1,,False
0,M7,401032,36,AMSTERDAM AV/W 98 ST,40.795601,-73.969106,24.0,1,,False
0,M7,401033,37,AMSTERDAM AV/W 100 ST,40.796869,-73.968181,24.0,1,,False
0,M7,401034,38,AMSTERDAM AV/W 102 ST,40.798005,-73.967398,24.0,1,,False
0,M7,401035,39,AMSTERDAM AV/W 104 ST,40.799391,-73.966341,24.0,1,,False
0,M7,401036,40,W 106 ST/AMSTERDAM AV,40.800184,-73.965359,24.0,1,,False
0,M7,401037,41,W 106 ST/COLUMBUS AV,40.798989,-73.962527,24.0,1,,False
0,M7,401038,42,MANHATTAN AV/W 106 ST,40.798937,-73.96118,24.0,1,,False
0,M7,401039,43,MANHATTAN AV/W 109 ST,40.800471,-73.960056,24.0,1,,False
0,M11,401027,33,AMSTERDAM AV/W 86 ST,40.787953,-73.974696,24.0,1,,False
0,M11,404320,34,AMSTERDAM AV/W 89 ST,40.78949,-73.973569,24.0,1,,False
0,M11,401029,35,AMSTERDAM AV/W 91 ST,40.791085,-73.972405,24.0,1,,False
0,M11,401030,36,AMSTERDAM AV/W 93 ST,40.792344,-73.97148,24.0,1,,False
0,M11,401031,37,AMSTERDAM AV/W 96 ST,40.794323,-73.970039,24.0,1,,False
0,M11,401032,38,AMSTERDAM AV/W 98 ST,40.795601,-73.969106,24.0,1,,False
0,M11,401033,39,AMSTERDAM AV/W 100 ST,40.796869,-73.968181,24.0,1,,False
0,M11,401034,40,AMSTERDAM AV/W 102 ST,40.798005,-73.967398,24.0,1,,False
0,M11,401035,41,AMSTERDAM AV/W 104 ST,40.799391,-73.966341,24.0,1,,False
0,M11,401435,42,AMSTERDAM AV/W 106 ST,40.800697,-73.965394,24.0,1,,False
0,M11,401436,43,AMSTERDAM AV/W 109 ST,40.802566,-73.964024,24.0,1,,False
0,M104,403109,18,BROADWAY/W 86 ST,40.788533,-73.976086,24.0,1,,False
0,M104,403110,19,BROADWAY/W 88 ST,40.789801,-73.975114,24.0,1,,False
0,M104,403111,20,BROADWAY/W 91 ST,40.791669,-73.973745,24.0,1,,False
0,M104,403112,21,BROADWAY/W 93 ST,40.792967,-73.972806,24.0,1,,False
0,M104,405248,22,BROADWAY/W 97 ST,40.795174,-73.971197,24.0,1,,False
0,M104,403114,23,BROADWAY/W 99 ST,40.796724,-73.970048,24.0,1,,False
0,M104,403115,24,BROADWAY/W 101 ST,40.798143,-73.968924,24.0,1,,False
0,M104,403116,25,BROADWAY/W 103 ST,40.79932,-73.968241,24.0,1,,False
0,M104,405394,26,BROADWAY/WEST 105 ST,40.801659,-73.967648,24.0,1,,False
0,M104,403118,27,BROADWAY/W 108 ST,40.803132,-73.967242,24.0,1,,False
0,M60+,403117,1,BROADWAY/W 106 ST,40.801818,-73.967642,24.0,1,,True
0,M106,401933,1,W 96 ST/WEST END AV,40.794933,-73.972689,24.0,1,,False
0,M106,401934,2,W 96 ST/BROADWAY,40.794392,-73.971407,24.0,1,,False
0,M106,401935,3,W 96 ST/AMSTERDAM AV,40.793798,-73.970006,24.0,1,,False
0,M106,401936,4,W 96 ST/COLUMBUS AV,40.792604,-73.967161,24.0,1,,False
0,M106,401937,5,W 96 ST/CENTRAL PK W,40.791667,-73.964944,24.0,1,,False
0,M96,401933,1,W 96 ST/WEST END AV,40.794933,-73.972689,24.0,1,,False
0,M96,401934,2,W 96 ST/BROADWAY,40.794392,-73.971407,24.0,1,,False
0,M96,401935,3,W 96 ST/AMSTERDAM AV,40.793798,-73.970006,24.0,1,,False
0,M96,401936,4,W 96 ST/COLUMBUS AV,40.792604,-73.967161,24.0,1,,False
0,M96,401937,5,W 96 ST/CENTRAL PK W,40.791667,-73.964944,24.0,1,,False
0,M116,404911,1,W 106 ST/BROADWAY,40.801154,-73.967576,24.0,1,,False
0,M116,401036,2,W 106 ST/AMSTERDAM AV,40.800184,-73.965359,24.0,1,,False
0,M116,401037,3,W 106 ST/COLUMBUS AV,40.798989,-73.962527,24.0,1,,False
0,M116,401038,4,MANHATTAN AV/W 106 ST,40.798937,-73.96118,24.0,1,,False
0,M116,401039,5,MANHATTAN AV/W 109 ST,40.800471,-73.960056,24.0,1,,False
0,M5,400599,35,RIVERSIDE DR/W 112 ST,40.806297,-73.967664,26.0,1,,False
0,M5,400771,36,RIVERSIDE DR/W 114 ST,40.807864,-73.966626,26.0,1,,False
0,M5,400772,37,RIVERSIDE DR/W 116 ST,40.809122,-73.965499,26.0,1,,False
0,M5,400602,38,RIVERSIDE DR/W 119 ST,40.810907,-73.964175,26.0,1,,False
0,M5,404258,39,RIVERSIDE DR/W 122 ST,40.812935,-73.9627,26.0,1,,False
0,M5,404821,40,RIVERSIDE DR/TIEMANN PL,40.816069,-73.961163,26.0,1,,False
0,M11,401442,48,AMSTERDAM AV/W 120 ST,40.809585,-73.958906,26.0,1,,False
0,M11,403292,50,AMSTERDAM AV/LA SALLE ST,40.812755,-73.956592,26.0,1,,False
0,M11,401438,44,AMSTERDAM AV/W 112 ST,40.804556,-73.962579,26.0,1,,False
0,M11,403886,45,AMSTERDAM AV/W 114 ST,40.805727,-73.961715,26.0,1,,False
0,M11,401440,46,AMSTERDAM AV/W 116 ST,40.807099,-73.960724,26.0,1,,False
0,M11,401441,47,AMSTERDAM AV/W 118 ST,40.808353,-73.959809,26.0,1,,False
0,M11,401443,49,AMSTERDAM AV/W 123 ST,40.812268,-73.956884,26.0,1,,False
0,M11,401444,51,AMSTERDAM AV/W 125 ST,40.813745,-73.955868,26.0,1,,False
0,M11,401446,52,AMSTERDAM AV/W 129 ST,40.814996,-73.955014,26.0,1,,False
0,M11,401447,53,AMSTERDAM AV/W 131 ST,40.816685,-73.953761,26.0,1,,False
0,M104,403122,30,BROADWAY/W 116 ST,40.80799,-73.963751,26.0,1,,False
0,M104,404262,31,BROADWAY/W 120 ST,40.810341,-73.961983,26.0,1,,False
0,M104,404260,29,BROADWAY/W 113 ST,40.806258,-73.964954,26.0,1,,False
0,M104,403125,32,BROADWAY/W 122 ST,40.812034,-73.960739,26.0,1,,False
0,M104,403126,33,BROADWAY/LA SALLE ST,40.813972,-73.959307,26.0,1,,False
0,M104,403127,34,BROADWAY/TIEMANN PL,40.814923,-73.95853,26.0,1,,False
0,M104,403119,28,BROADWAY/CATHEDRAL PKY,40.804269,-73.96635,26.0,1,,False
0,M104,401445,35,AMSTERDAM AV/W 126 ST,40.81434,-73.955492,26.0,1,,False
0,M104,903089,36,AMSTERDAM AV/W 129 ST,40.814906,-73.955044,26.0,1,,False
0,M4,403122,42,BROADWAY/W 116 ST,40.80799,-73.963751,26.0,1,,False
0,M4,404262,43,BROADWAY/W 120 ST,40.810341,-73.961983,26.0,1,,False
0,M4,400595,37,CATHEDRAL PY/MANHATTAN AV,40.801417,-73.959954,26.0,1,,False
0,M4,400596,38,CATHEDRAL PY/MORNINGSIDE DR,40.802016,-73.961395,26.0,1,,False
0,M4,400597,39,CATHEDRAL PY/AMSTERDAM AV,40.803219,-73.964208,26.0,1,,False
0,M4,400598,40,CATHEDRAL PY/BROADWAY,40.804142,-73.966436,26.0,1,,False
0,M4,404260,41,BROADWAY/W 113 ST,40.806258,-73.964954,26.0,1,,False
0,M4,403125,44,BROADWAY/W 122 ST,40.812034,-73.960739,26.0,1,,False
0,M4,403126,45,BROADWAY/LA SALLE ST,40.813972,-73.959307,26.0,1,,False
0,M4,403127,46,BROADWAY/TIEMANN PL,40.814923,-73.95853,26.0,1,,False
0,M4,404232,47,BROADWAY/W 131 ST,40.817322,-73.956852,26.0,1,,False
0,M4,403461,48,BROADWAY/W 133 ST,40.818494,-73.955937,26.0,1,,False
0,M60+,403122,2,BROADWAY/W 116 ST,40.80799,-73.963751,26.0,1,,True
0,M60+,404262,3,BROADWAY/W 120 ST,40.810341,-73.961983,26.0,1,,True
0,M60+,401442,4,AMSTERDAM AV/W 120 ST,40.809585,-73.958906,26.0,1,,True
0,M60+,403292,5,AMSTERDAM AV/LA SALLE ST,40.812755,-73.956592,26.0,1,,True
0,M101,401445,54,AMSTERDAM AV/W 126 ST,40.81434,-73.955492,26.0,1,,False
0,M101,401446,55,AMSTERDAM AV/W 129 ST,40.814996,-73.955014,26.0,1,,False
0,M101,401447,56,AMSTERDAM AV/W 131 ST,40.816685,-73.953761,26.0,1,,False
0,M101,402510,52,W 125 ST/ST NICHOLAS AV,40.811005,-73.953007,26.0,1,,False
0,M101,402512,53,W 125 ST/AMSTERDAM AV,40.813269,-73.956121,26.0,1,,False
0,M101,401448,57,AMSTERDAM AV/W 133 ST,40.81785,-73.952922,26.0,1,,False
0,M101,402517,58,AMSTERDAM AV/W 135 ST,40.819316,-73.95184,26.0,1,,False
0,M101,402518,59,AMSTERDAM AV/W 138 ST,40.821041,-73.950578,26.0,1,,False
0,M101,402519,60,AMSTERDAM AV/W 140 ST,40.822402,-73.949594,26.0,1,,False
0,M15+,401727,19,1 AV/E 116 ST,40.796323,-73.935122,25.0,1,,True
0,M15+,401731,20,1 AV/E 125 ST,40.801611,-73.931268,25.0,1,,True
0,M15+,803054,21,E 126 ST/2 AV,40.80315,-73.932264,25.0,1,,True
0,M15,401727,56,1 AV/E 116 ST,40.796323,-73.935122,25.0,1,,False
0,M15,401729,57,1 AV/E 120 ST,40.798936,-73.933223,25.0,1,,False
0,M15,401730,58,1 AV/PALADINO AV,40.80036,-73.932182,25.0,1,,False
0,M15,401731,59,1 AV/E 125 ST,40.801611,-73.931268,25.0,1,,False
0,M15,803054,60,E 126 ST/2 AV,40.80315,-73.932264,25.0,1,,False
0,M1,400050,49,MADISON AV/E 116 ST,40.800405,-73.944495,25.0,1,,False
0,M1,400051,50,MADISON AV/E 118 ST,40.801507,-73.943618,25.0,1,,False
0,M1,403980,51,MADISON AV/E 121 ST,40.803482,-73.942225,25.0,1,,False
0,M1,400053,52,MADISON AV/E 123 ST,40.804777,-73.941328,25.0,1,,False
0,M1,400054,53,MADISON AV/E 125 ST,40.806015,-73.940348,25.0,1,,False
0,M1,400055,54,MADISON AV/E 127 ST,40.807247,-73.939459,25.0,1,,False
0,M1,400056,55,MADISON AV/E 129 ST,40.808511,-73.938536,25.0,1,,False
0,M1,400057,56,MADISON AV/E 132 ST,40.810426,-73.937108,25.0,1,,False
0,M1,403711,57,E 135 ST/MADISON AV,40.812302,-73.936529,25.0,1,,False
0,M1,400059,58,5 AV/E 135 ST,40.813125,-73.937224,25.0,1,,False
0,M1,400060,59,5 AV/E 138 ST,40.814463,-73.936251,25.0,1,,False
0,M103,405181,50,3 AV/E 116 ST,40.797798,-73.94004,25.0,1,,False
0,M103,402707,51,3 AV/E 118 ST,40.799578,-73.938718,25.0,1,,False
0,M103,403438,52,3 AV/E 122 ST,40.802025,-73.936967,25.0,1,,False
0,M103,903042,53,3 AV /E 125 ST,40.804205,-73.935368,25.0,1,,False
0,M103,803153,54,E 126 ST/2 AV,40.803873,-73.93388,25.0,1,,False
0,M60+,402661,8,E 125 ST/MADISON AV,40.805533,-73.940296,25.0,1,,True
0,M60+,403671,9,E 125 ST/LEXINGTON AV,40.804178,-73.937065,25.0,1,,True
0,M60+,403673,10,E 125 ST/2 AV,40.802793,-73.933781,25.0,1,,True
0,M60+,803215,11,triboro br/ramp,40.796418,-73.921784,25.0,1,,True
0,M101,402503,45,E 125 ST/LEXINGTON AV,40.804584,-73.937761,25.0,1,,False
0,M101,402504,46,E 125 ST/PARK AV,40.805301,-73.939475,25.0,1,,False
0,M101,405181,41,3 AV/E 116 ST,40.797798,-73.94004,25.0,1,,False
0,M101,402707,42,3 AV/E 118 ST,40.799578,-73.938718,25.0,1,,False
0,M101,403438,43,3 AV/E 122 ST,40.802025,-73.936967,25.0,1,,False
0,M101,402502,44,E 125 ST/3 AV,40.803935,-73.936221,25.0,1,,False
0,M101,402505,47,E 125 ST/MADISON AV,40.805979,-73.940999,25.0,1,,False
0,M98,405181,7,3 AV/E 116 ST,40.797798,-73.94004,25.0,1,,False
0,M98,403537,8,3 AV/E 125 ST,40.80389,-73.935524,25.0,1,,False
0,M102,402003,42,E 116 ST/LEXINGTON AV,40.798601,-73.941471,25.0,1,,False
0,M102,402004,43,E 116 ST/PARK AV,40.799171,-73.942827,25.0,1,,False
0,M102,402005,44,E 116 ST/MADISON AV,40.800172,-73.94517,25.0,1,,False
0,M102,402006,45,E 116 ST/5 AV,40.800626,-73.946224,25.0,1,,False
0,M102,405135,41,E 116 ST/3 AV,40.798172,-73.940408,25.0,1,,False
0,M116,401990,13,E 116 ST/MADISON AV,40.799718,-73.944398,25.0,1,,False
0,M116,401992,14,E 116 ST/LEXINGTON AV,40.798605,-73.941821,25.0,1,,False
0,M116,401993,15,E 116 ST/3 AV,40.797712,-73.939691,25.0,1,,False
0,M116,401994,16,E 116 ST/2 AV,40.796991,-73.937987,25.0,1,,False
0,M116,401727,17,1 AV/E 116 ST,40.796323,-73.935122,25.0,1,,False
0,M116,401729,18,1 AV/E 120 ST,40.798936,-73.933223,25.0,1,,False
0,M116,401730,19,1 AV/PALADINO AV,40.80036,-73.932182,25.0,1,,False
0,M116,803059,20,PLEASANT AV/E 120 ST,40.797614,-73.93101,25.0,1,,False
0,M35,402458,1,LEXINGTON AV/E 125 ST,40.80458,-73.937417,25.0,1,,False
0,M35,402460,2,E 124 ST/3 AV,40.803051,-73.936515,25.0,1,,False
0,M35,402461,3,E 124 ST/2 AV,40.802148,-73.934477,25.0,1,,False
0,M35,404352,4,MAIN RDY/AFTER EXIT RAMP,40.796137,-73.919511,25.0,1,,False
0,M35,405140,5,MAIN RDY/OPP GOLF CTR PARKING,40.794984,-73.921694,25.0,1,,False
0,M35,404353,6,MAIN RDY/ICAHN STADIUM,40.792872,-73.92339,25.0,1,,False
0,M35,803238,7,RIVERS EDGE RD/MAN PSYCH CTR ENT,40.790347,-73.928631,25.0,1,,False
0,M35,803239,8,MAIN ROADWAY/RIVERS EDGE RD,40.789129,-73.926861,25.0,1,,False
0,M35,404355,9,MAIN RDY/OPP CLARKE THOMAS BLDG,40.78641,-73.929197,25.0,1,,False
0,M35,404356,10,SUNKEN GARDEN LOOP/EMPLOYMENT CTR,40.786171,-73.931819,25.0,1,,False
0,M35,803034,11,SUNKEN GARDEN LOOP/Charles Gay CTR,40.785095,-73.930841,25.0,1,,False
0,M15+,803121,1,SOUTH FERRY/TERMINAL,40.702045,-74.01358,1.0,1,,True
0,M15+,401666,2,WATER ST/WALL ST,40.705287,-74.007109,1.0,1,,True
0,M15+,404850,3,PEARL ST/FULTON ST,40.70755,-74.003857,1.0,1,,True
0,M15,401666,4,WATER ST/WALL ST,40.705287,-74.007109,1.0,1,,False
0,M15,404850,5,PEARL ST/FULTON ST,40.70755,-74.003857,1.0,1,,False
0,M15,803019,1,SOUTH ST/WHITEHALL ST,40.701536,-74.012485,1.0,1,,False
0,M15,401664,2,WATER ST/BROAD ST,40.703036,-74.010834,1.0,1,,False
0,M15,401665,3,WATER ST/OLD SLIP,40.704274,-74.00849,1.0,1,,False
0,M15,401669,6,PEARL ST/PECK SLIP,40.708968,-74.002171,1.0,1,,False
0,M22,405054,1,VESEY ST/NORTH END AV,40.714631,-74.015692,1.0,1,,False
0,M22,405056,2,NORTH END AV/WARREN ST,40.717072,-74.014087,1.0,1,,False
0,M22,404969,3,CHAMBERS ST/GREENWICH ST,40.716076,-74.010616,1.0,1,,False
0,M22,404976,4,CHAMBERS ST/W BROADWAY,40.715377,-74.009105,1.0,1,,False
0,M22,404977,5,CHAMBERS ST/CHURCH ST,40.714769,-74.007746,1.0,1,,False
0,M22,404219,6,BROADWAY/WARREN ST,40.713766,-74.006749,1.0,1,,False
0,M22,903280,7,PARK ROW/SPRUCE ST,40.711897,-74.006203,1.0,1,,False
0,M22,404101,8,FRANKFORT ST/WILLIAM ST,40.711388,-74.004401,1.0,1,,False
0,M22,402085,9,FRANKFORT ST/PEARL ST,40.709555,-74.001873,1.0,1,,False
0,M9,903280,4,PARK ROW/SPRUCE ST,40.711897,-74.006203,1.0,1,,False
0,M9,403399,1,SOUTH END AV/ALBANY ST,40.711472,-74.015762,1.0,1,,False
0,M9,803147,2,WARREN ST/GREENWICH ST,40.715614,-74.011327,1.0,1,,False
0,M9,803105,3,WARREN ST/CHURCH ST,40.714232,-74.008257,1.0,1,,False
0,M20,405056,8,NORTH END AV/WARREN ST,40.717072,-74.014087,1.0,1,,False
0,M20,403397,5,WEST THAMES ST/SOUTH END AV,40.708407,-74.017093,1.0,1,,False
0,M20,403399,6,SOUTH END AV/ALBANY ST,40.711472,-74.015762,1.0,1,,False
0,M20,803184,1,STATE ST/WHITEHALL ST,40.70242,-74.013049,1.0,1,,False
0,M20,400903,2,STATE ST/BRIDGE ST,40.704209,-74.014192,1.0,1,,False
0,M20,404983,3,BATTERY PL/WEST ST,40.704998,-74.017384,1.0,1,,False
0,M20,404986,4,BATTERY PL/3 PL,40.707616,-74.016909,1.0,1,,False
0,M20,405063,7,MURRAY ST/NORTH END AV,40.715733,-74.015035,1.0,1,,False
0,M20,405065,9,WEST ST/CHAMBERS ST,40.717479,-74.01255,1.0,1,,False
0,M20,404864,10,HARRISON ST/WEST ST,40.718895,-74.012053,1.0,1,,False
0,M20,404863,11,HARRISON ST/HUDSON ST,40.718596,-74.009167,1.0,1,,False
0,M20,403444,12,HUDSON ST/NORTH MOORE ST,40.719859,-74.008499,1.0,1,,False
0,M20,404832,13,HUDSON ST/SPRING ST,40.726026,-74.007396,1.0,1,,False
0,M20,401301,14,HUDSON ST/CHARLTON ST,40.727185,-74.007248,1.0,1,,False
0,M21,404990,1,SPRING ST/GREENWICH ST,40.725908,-74.00874,1.0,1,,False
0,M21,403851,2,SPRING ST/HUDSON ST,40.725735,-74.007198,1.0,1,,False
0,M21,400917,3,6 AV/SPRING ST,40.72573,-74.00387,1.0,1,,False
0,M21,404132,4,AV OF THE AMERICAS/PRINCE ST,40.727023,-74.003348,1.0,1,,False
0,M21,402022,5,W HOUSTON ST/AV OF THE AMERICAS,40.728226,-74.002663,1.0,1,,False
0,M21,402023,6,W HOUSTON ST/SULLIVAN ST,40.727478,-74.001098,1.0,1,,False
0,M21,402024,7,W HOUSTON ST/W BROADWAY,40.726524,-73.999412,1.0,1,,False
0,M21,405172,8,W HOUSTON ST/GREENE ST,40.725949,-73.998326,1.0,1,,False
0,M55,404132,15,AV OF THE AMERICAS/PRINCE ST,40.727023,-74.003348,1.0,1,,False
0,M55,803184,1,STATE ST/WHITEHALL ST,40.70242,-74.013049,1.0,1,,False
0,M55,400903,2,STATE ST/BRIDGE ST,40.704209,-74.014192,1.0,1,,False
0,M55,405256,3,TRINITY PL/MORRIS ST,40.706259,-74.014231,1.0,1,,False
0,M55,400070,4,TRINITY PL/RECTOR ST,40.708007,-74.012714,1.0,1,,False
0,M55,400071,5,CHURCH ST/LIBERTY ST,40.710016,-74.011358,1.0,1,,False
0,M55,404108,6,CHURCH ST/VESEY ST,40.712127,-74.010049,1.0,1,,False
0,M55,405279,7,CHURCH ST/WARREN ST,40.714147,-74.008419,1.0,1,,False
0,M55,400910,8,CHURCH ST/CHAMBERS ST,40.714954,-74.007835,1.0,1,,False
0,M55,405024,9,CHURCH ST/WORTH ST,40.716678,-74.006421,1.0,1,,False
0,M55,400913,10,AV OF THE AMERICAS/WHITE ST,40.719318,-74.005054,1.0,1,,False
0,M55,403847,11,AV OF THE AMERICAS/WEST BROADWAY,40.720826,-74.004936,1.0,1,,False
0,M55,400915,12,6 AV/THOMPSON ST,40.722291,-74.005193,1.0,1,,False
0,M55,400916,13,AV OF THE AMERICAS/BROOME ST,40.724232,-74.004455,1.0,1,,False
0,M55,803160,14,AV OF THE AMERICAS/SPRING ST,40.725275,-74.003983,1.0,1,,False
0,M103,903281,1,PARK ROW/BEEKMAN ST,40.71173,-74.006841,1.0,1,,False
0,M15+,405319,4,MADISON ST/CATHERINE ST,40.71193,-73.997157,5.0,1,,True
0,M15,401670,7,ST JAMES PL/R F WAGNER SR PL,40.710594,-74.000752,5.0,1,,False
0,M15,402088,8,MADISON ST/OLIVER ST,40.711877,-73.997922,5.0,1,,False
0,M15,402090,9,MADISON ST/MARKET ST,40.712207,-73.994092,5.0,1,,False
0,M22,401670,10,ST JAMES PL/R F WAGNER SR PL,40.710594,-74.000752,5.0,1,,False
0,M22,402088,11,MADISON ST/OLIVER ST,40.711877,-73.997922,5.0,1,,False
0,M22,402090,12,MADISON ST/MARKET ST,40.712207,-73.994092,5.0,1,,False
0,M9,404857,5,PARK ROW/ST JAMES PL,40.713383,-73.998691,5.0,1,,False
0,M9,405006,6,E BROADWAY/CATHERINE ST,40.713376,-73.997392,5.0,1,,False
0,M9,401168,7,E BROADWAY/FORSYTH ST,40.713675,-73.994096,5.0,1,,False
0,M21,402028,9,E HOUSTON ST/MOTT ST,40.724449,-73.993704,5.0,1,,False
0,M21,402030,10,E HOUSTON ST/BOWERY,40.723836,-73.992093,5.0,1,,False
0,M21,401787,11,E HOUSTON ST/FORSYTH ST,40.723329,-73.990427,5.0,1,,False
0,M1,903130,1,CENTRE ST/BROOME ST,40.720643,-73.997694,5.0,1,,False
0,M1,400081,2,CLEVELAND  PL/SPRING ST,40.722433,-73.997008,5.0,1,,False
0,M103,404851,2,PARK ROW/ST JAMES PL,40.713383,-73.998691,5.0,1,,False
0,M103,402753,3,BOWERY/BAYARD ST,40.715391,-73.996465,5.0,1,,False
0,M103,405269,4,BOWERY/HESTER ST,40.717343,-73.9953,5.0,1,,False
0,M103,402755,5,BOWERY/GRAND ST,40.718788,-73.994542,5.0,1,,False
0,M103,402757,6,BOWERY/DELANCEY ST,40.720748,-73.993726,5.0,1,,False
0,M103,402760,7,BOWERY/E HOUSTON ST,40.72392,-73.992585,5.0,1,,False
0,M15+,405320,5,ALLEN ST/GRAND ST,40.717171,-73.991222,7.0,1,,True
0,M15,405320,12,ALLEN ST/GRAND ST,40.717171,-73.991222,7.0,1,,False
0,M15,404843,10,PIKE ST/MADISON ST,40.71288,-73.992288,7.0,1,,False
0,M15,401675,11,PIKE ST/DIVISION ST,40.714303,-73.992468,7.0,1,,False
0,M15,401679,13,ALLEN ST/DELANCEY ST,40.719558,-73.989999,7.0,1,,False
0,M15,401681,14,ALLEN ST/STANTON ST,40.721896,-73.988839,7.0,1,,False
0,M22,402091,13,MADISON ST/PIKE ST,40.712393,-73.992032,7.0,1,,False
0,M22,402092,14,MADISON ST/RUTGERS ST,40.712601,-73.989561,7.0,1,,False
0,M22,402093,15,MADISON ST/JEFFERSON ST,40.712697,-73.988399,7.0,1,,False
0,M22,402094,16,MADISON ST/CLINTON ST,40.712865,-73.986455,7.0,1,,False
0,M22,402095,17,MADISON ST/MONTGOMERY ST,40.713043,-73.984583,7.0,1,,False
0,M22,402096,18,MADISON ST/GOUVERNEUR ST,40.713152,-73.983555,7.0,1,,False
0,M22,402097,19,MADISON ST/GOUVERNEUR ST,40.713331,-73.981762,7.0,1,,False
0,M22,404922,20,MADISON ST/GRAND ST,40.713503,-73.980417,7.0,1,,False
0,M22,903025,21,GRAND ST/FDR DR,40.713355,-73.978278,7.0,1,,False
0,M14A+,903025,20,GRAND ST/FDR DR,40.713355,-73.978278,7.0,1,,True
0,M14A+,403318,14,ESSEX ST/DELANCEY ST,40.718247,-73.988474,7.0,1,,True
0,M14A+,403475,15,GRAND ST/ESSEX ST,40.716485,-73.988824,7.0,1,,True
0,M14A+,401139,16,GRAND ST/CLINTON ST,40.715758,-73.986415,7.0,1,,True
0,M14A+,401140,17,GRAND ST/PITT ST,40.715164,-73.984467,7.0,1,,True
0,M14A+,401141,18,GRAND ST/EAST BROADWAY,40.714594,-73.982301,7.0,1,,True
0,M14A+,401142,19,GRAND ST/JACKSON ST,40.71408,-73.980611,7.0,1,,True
0,M9,402033,12,E HOUSTON ST/NORFOLK ST,40.721682,-73.984971,7.0,1,,False
0,M9,402034,13,E HOUSTON ST/CLINTON ST,40.721285,-73.983737,7.0,1,,False
0,M9,404100,14,E HOUSTON ST/RIDGE ST,40.720652,-73.981642,7.0,1,,False
0,M9,401169,8,E BROADWAY/PIKE ST,40.713808,-73.99265,7.0,1,,False
0,M9,405165,9,ESSEX ST/CANAL ST,40.715445,-73.989723,7.0,1,,False
0,M9,403317,10,ESSEX ST/GRAND ST,40.71682,-73.989005,7.0,1,,False
0,M9,403732,11,ESSEX ST/DELANCEY ST,40.718944,-73.987893,7.0,1,,False
0,M21,402032,12,E HOUSTON ST/ESSEX ST,40.722147,-73.986565,7.0,1,,False
0,M21,402033,13,E HOUSTON ST/NORFOLK ST,40.721682,-73.984971,7.0,1,,False
0,M21,402034,14,E HOUSTON ST/CLINTON ST,40.721285,-73.983737,7.0,1,,False
0,M21,404100,15,E HOUSTON ST/RIDGE ST,40.720652,-73.981642,7.0,1,,False
0,M21,403808,16,E HOUSTON ST/COLUMBIA ST,40.719626,-73.978387,7.0,1,,False
0,M21,401598,17,E HOUSTON ST/BARUCH DR,40.719096,-73.976883,7.0,1,,False
0,M21,401599,18,E HOUSTON ST/MANGIN ST,40.718835,-73.975614,7.0,1,,False
0,M21,401600,19,F. D. R. DRIVE/555 FDR DR,40.71675,-73.975842,7.0,1,,False
0,M21,803115,20,GRAND ST/FDR DR,40.71335,-73.977745,7.0,1,,False
0,M14D+,403808,19,E HOUSTON ST/COLUMBIA ST,40.719626,-73.978387,7.0,1,,True
0,M14D+,401599,20,E HOUSTON ST/MANGIN ST,40.718835,-73.975614,7.0,1,,True
0,M14D+,401600,21,F. D. R. DRIVE/555 FDR DR,40.71675,-73.975842,7.0,1,,True
0,M14D+,403557,22,DELANCEY ST/FDR DR,40.715368,-73.976655,7.0,1,,True
0,M14D+,903088,23,DELANCY ST/COLUMBIA ST,40.716404,-73.980285,7.0,1,,True
0,M15+,903093,6,1 AV/E 1 ST,40.724012,-73.987802,9.0,1,,True
0,M15,401682,15,1 AV/E 2 ST,40.723561,-73.988177,9.0,1,,False
0,M15,405098,16,1 AV / 4 ST,40.725463,-73.986785,9.0,1,,False
0,M15,401685,17,1 AV/ST MARKS PL,40.727823,-73.985061,9.0,1,,False
0,M15,401686,18,1 AV/E 11 ST,40.729636,-73.983733,9.0,1,,False
0,M14A+,403556,6,E 14 ST/IRVING PL,40.733947,-73.988902,9.0,1,,True
0,M14A+,401191,7,E 14 ST/3 AV,40.733008,-73.986729,9.0,1,,True
0,M14A+,401192,8,E 14 ST/2 AV,40.732083,-73.984535,9.0,1,,True
0,M14A+,401193,9,E 14 ST/1 AV,40.731086,-73.982172,9.0,1,,True
0,M14A+,803193,10,AV A/E 14 ST,40.730267,-73.980555,9.0,1,,True
0,M14A+,401610,11,AV A/E 11 ST,40.728215,-73.982068,9.0,1,,True
0,M14A+,401612,12,AV A/E 5 ST,40.724575,-73.984651,9.0,1,,True
0,M14A+,903250,13,AV A/E HOUSTON ST,40.722345,-73.986267,9.0,1,,True
0,M9,402036,15,AV C/E 3 ST,40.721781,-73.980425,9.0,1,,False
0,M9,402037,16,AV C/E 5 ST,40.723008,-73.979516,9.0,1,,False
0,M9,402038,17,AV C/E 7 ST,40.724334,-73.978577,9.0,1,,False
0,M9,402039,18,AV C/E 11 ST,40.726278,-73.97714,9.0,1,,False
0,M9,401630,19,AV C/E 12 ST,40.727333,-73.976332,9.0,1,,False
0,M9,402041,20,AV C/E 14 ST,40.728297,-73.975689,9.0,1,,False
0,M14D+,401591,16,E 10 ST/AV D,40.724868,-73.975315,9.0,1,,True
0,M14D+,401589,15,AV C/E 12 ST,40.726979,-73.976815,9.0,1,,True
0,M14D+,403556,8,E 14 ST/IRVING PL,40.733947,-73.988902,9.0,1,,True
0,M14D+,401191,9,E 14 ST/3 AV,40.733008,-73.986729,9.0,1,,True
0,M14D+,401192,10,E 14 ST/2 AV,40.732083,-73.984535,9.0,1,,True
0,M14D+,401193,11,E 14 ST/1 AV,40.731086,-73.982172,9.0,1,,True
0,M14D+,401194,12,E 14 ST/AV A,40.730341,-73.980297,9.0,1,,True
0,M14D+,401195,13,E 14 ST/AV B,40.72942,-73.978171,9.0,1,,True
0,M14D+,401587,14,E 14 ST/AV C,40.728428,-73.975827,9.0,1,,True
0,M14D+,401595,17,AV D/E 6 ST,40.722269,-73.977174,9.0,1,,True
0,M14D+,401596,18,AV D/E 4 ST,40.721056,-73.978055,9.0,1,,True
0,M8,404010,13,E 8 ST/LAFAYETTE ST,40.730069,-73.991279,9.0,1,,False
0,M8,401542,14,ST MARKS PL/3 AV,40.729322,-73.989533,9.0,1,,False
0,M8,401543,15,ST MARKS PL/2 AV,40.728611,-73.987848,9.0,1,,False
0,M8,401544,16,ST MARKS PL/1 AV,40.727381,-73.984926,9.0,1,,False
0,M8,401545,17,ST MARKS PL/AV A,40.72672,-73.983353,9.0,1,,False
0,M8,401547,18,E 10 ST/AV A,40.727645,-73.981877,9.0,1,,False
0,M8,401548,19,E 10 ST/AV B,40.726672,-73.97959,9.0,1,,False
0,M8,401549,20,E 10 ST/AV C,40.725667,-73.97722,9.0,1,,False
0,M8,401591,21,E 10 ST/AV D,40.724868,-73.975315,9.0,1,,False
0,M8,803177,22,AV D/LOOP,40.724689,-73.974548,9.0,1,,False
0,M2,400001,1,4 AV/E 10 ST,40.731342,-73.990292,9.0,1,,False
0,M2,400002,2,4 AV/E 12 ST,40.732608,-73.989958,9.0,1,,False
0,M2,400003,3,4 AV/E 13 ST,40.733936,-73.98972,9.0,1,,False
0,M1,400001,6,4 AV/E 10 ST,40.731342,-73.990292,9.0,1,,False
0,M1,400002,7,4 AV/E 12 ST,40.732608,-73.989958,9.0,1,,False
0,M1,400003,8,4 AV/E 13 ST,40.733936,-73.98972,9.0,1,,False
0,M1,400083,3,LAFAYETTE ST/E HOUSTON ST,40.72517,-73.995221,9.0,1,,False
0,M1,400085,4,LAFAYETTE ST/E 4 ST,40.728066,-73.992849,9.0,1,,False
0,M1,400086,5,LAFAYETTE ST/ASTOR PL,40.729751,-73.991427,9.0,1,,False
0,M3,400001,1,4 AV/E 10 ST,40.731342,-73.990292,9.0,1,,False
0,M3,400002,2,4 AV/E 12 ST,40.732608,-73.989958,9.0,1,,False
0,M3,400003,3,4 AV/E 13 ST,40.733936,-73.98972,9.0,1,,False
0,M103,405130,8,BOWERY/E 1 ST,40.725148,-73.992108,9.0,1,,False
0,M103,402762,9,BOWERY/E 3 ST,40.726723,-73.991525,9.0,1,,False
0,M103,402666,10,COOPER SQ/E 6 ST,40.728395,-73.990611,9.0,1,,False
0,M103,405155,11,3 AV/E 9 ST,40.730389,-73.989235,9.0,1,,False
0,M103,403526,12,3 AV/E 11 ST,40.73168,-73.988278,9.0,1,,False
0,M101,405155,2,3 AV/E 9 ST,40.730389,-73.989235,9.0,1,,False
0,M101,403526,3,3 AV/E 11 ST,40.73168,-73.988278,9.0,1,,False
0,M101,903147,1,ASTOR PL/3 AV,40.729567,-73.990052,9.0,1,,False
0,M102,405155,2,3 AV/E 9 ST,40.730389,-73.989235,9.0,1,,False
0,M102,403526,3,3 AV/E 11 ST,40.73168,-73.988278,9.0,1,,False
0,M102,903147,1,ASTOR PL/3 AV,40.729567,-73.990052,9.0,1,,False
0,M15+,401687,7,1 AV/E 14 ST,40.732122,-73.981946,13.0,1,,True
0,M15+,405323,8,1 AV/E 25 ST,40.737991,-73.977607,13.0,1,,True
0,M15+,404995,9,1 AV/E 28 ST,40.74057,-73.975823,13.0,1,,True
0,M15,405396,24,1 AV/E 27 ST,40.739627,-73.976496,13.0,1,,False
0,M15,401687,19,1 AV/E 14 ST,40.732122,-73.981946,13.0,1,,False
0,M15,404995,25,1 AV/E 28 ST,40.74057,-73.975823,13.0,1,,False
0,M15,401688,20,1 AV/E 17 ST,40.733155,-73.981188,13.0,1,,False
0,M15,401689,21,1 AV/E 20 ST,40.735109,-73.979751,13.0,1,,False
0,M15,401690,22,1 AV/E 23 ST,40.737053,-73.978368,13.0,1,,False
0,M15,401691,23,1 AV/E 25 ST,40.738501,-73.977296,13.0,1,,False
0,M9,402042,21,AV C/E 16 ST,40.729699,-73.974715,13.0,1,,False
0,M9,402043,22,AV C/FDR DRIVE,40.730813,-73.973903,13.0,1,,False
0,M9,404099,23,E 20 ST/E 20 ST Loop,40.734053,-73.97755,13.0,1,,False
0,M9,405368,24,1 AV/E 23 ST,40.736654,-73.978633,13.0,1,,False
0,M9,903080,25,1 AV/E 26 ST,40.738626,-73.97711,13.0,1,,False
0,M55,400726,21,AV OF THE AMERICAS/W 15 ST,40.738103,-73.99621,13.0,1,,False
0,M55,404991,22,AV OF THE AMERICAS/W 18 ST,40.739588,-73.995074,13.0,1,,False
0,M55,403914,23,AV OF THE AMERICAS/W 20 ST,40.741155,-73.993876,13.0,1,,False
0,M55,400929,24,AV OF THE AMERICAS/W 23 ST,40.743027,-73.992644,13.0,1,,False
0,M55,400731,25,AV OF THE AMERICAS/W 27 ST,40.745283,-73.990927,13.0,1,,False
0,M55,400732,26,AV OF THE AMERICAS/W 29 ST,40.746542,-73.990097,13.0,1,,False
0,M2,404120,4,UNION SQ E/E 15 ST,40.73555,-73.989612,13.0,1,,False
0,M2,403782,7,PARK AV S/E 23 ST,40.740471,-73.985939,13.0,1,,False
0,M2,405380,9,MADISON AV/E 28 ST,40.744189,-73.985425,13.0,1,,False
0,M2,404936,5,PARK AV S/E 18 ST,40.736788,-73.988625,13.0,1,,False
0,M2,400007,6,PARK AV S/E 21 ST,40.738976,-73.987053,13.0,1,,False
0,M2,403316,8,E 25 ST/PARK AV S,40.741564,-73.985493,13.0,1,,False
0,M1,404120,9,UNION SQ E/E 15 ST,40.73555,-73.989612,13.0,1,,False
0,M1,403782,12,PARK AV S/E 23 ST,40.740471,-73.985939,13.0,1,,False
0,M1,405380,14,MADISON AV/E 28 ST,40.744189,-73.985425,13.0,1,,False
0,M1,404936,10,PARK AV S/E 18 ST,40.736788,-73.988625,13.0,1,,False
0,M1,400007,11,PARK AV S/E 21 ST,40.738976,-73.987053,13.0,1,,False
0,M1,403316,13,E 25 ST/PARK AV S,40.741564,-73.985493,13.0,1,,False
0,M3,404120,4,UNION SQ E/E 15 ST,40.73555,-73.989612,13.0,1,,False
0,M3,403782,7,PARK AV S/E 23 ST,40.740471,-73.985939,13.0,1,,False
0,M3,405380,9,MADISON AV/E 28 ST,40.744189,-73.985425,13.0,1,,False
0,M3,404936,5,PARK AV S/E 18 ST,40.736788,-73.988625,13.0,1,,False
0,M3,400007,6,PARK AV S/E 21 ST,40.738976,-73.987053,13.0,1,,False
0,M3,403316,8,E 25 ST/PARK AV S,40.741564,-73.985493,13.0,1,,False
0,M34+,401832,13,E 23 ST/2 AV,40.737663,-73.980554,13.0,1,,True
0,M34+,405336,12,2 AV/E 28 ST,40.741114,-73.978641,13.0,1,,True
0,M34+,401833,14,E 23 ST/1 AV,40.736691,-73.978245,13.0,1,,True
0,M34+,402052,15,E 23 ST/AV C,40.7355,-73.975374,13.0,1,,True
0,M34+,903027,16,WATERSIDE/WATERSIDE,40.737552,-73.973846,13.0,1,,True
0,M34A+,401832,12,E 23 ST/2 AV,40.737663,-73.980554,13.0,1,,True
0,M34A+,405336,11,2 AV/E 28 ST,40.741114,-73.978641,13.0,1,,True
0,M34A+,401833,13,E 23 ST/1 AV,40.736691,-73.978245,13.0,1,,True
0,M34A+,402052,14,E 23 ST/AV C,40.7355,-73.975374,13.0,1,,True
0,M34A+,903027,15,WATERSIDE/WATERSIDE,40.737552,-73.973846,13.0,1,,True
0,M23+,401832,12,E 23 ST/2 AV,40.737663,-73.980554,13.0,1,,True
0,M23+,404264,14,AV C/E 23 ST,40.735175,-73.975191,13.0,1,,True
0,M23+,401833,13,E 23 ST/1 AV,40.736691,-73.978245,13.0,1,,True
0,M23+,402127,7,W 23 ST/7 AV,40.743952,-73.995493,13.0,1,,True
0,M23+,402128,8,W 23 ST/6 AV,40.74236,-73.991763,13.0,1,,True
0,M23+,402130,9,E 23 ST/BROADWAY,40.741142,-73.98879,13.0,1,,True
0,M23+,402132,10,E 23 ST/PARK AV S,40.739922,-73.985994,13.0,1,,True
0,M23+,402134,11,E 23 ST/3 AV,40.738589,-73.982755,13.0,1,,True
0,M23+,903002,15,AV C/E 20 ST,40.733004,-73.974597,13.0,1,,True
0,M103,403913,13,3 AV/E 14 ST,40.733689,-73.986787,13.0,1,,False
0,M103,402670,14,3 AV/E 17 ST,40.735511,-73.985465,13.0,1,,False
0,M103,405061,15,3 AV/E 21 ST,40.737436,-73.984124,13.0,1,,False
0,M103,403855,16,3 AV/E 23 ST,40.739218,-73.982771,13.0,1,,False
0,M103,402673,17,3 AV/E 26 ST,40.741067,-73.981419,13.0,1,,False
0,M103,402674,18,3 AV/E 29 ST,40.742894,-73.980105,13.0,1,,False
0,M7,400726,1,AV OF THE AMERICAS/W 15 ST,40.738103,-73.99621,13.0,1,,False
0,M7,404991,2,AV OF THE AMERICAS/W 18 ST,40.739588,-73.995074,13.0,1,,False
0,M7,403914,3,AV OF THE AMERICAS/W 20 ST,40.741155,-73.993876,13.0,1,,False
0,M7,400929,4,AV OF THE AMERICAS/W 23 ST,40.743027,-73.992644,13.0,1,,False
0,M7,400731,5,AV OF THE AMERICAS/W 27 ST,40.745283,-73.990927,13.0,1,,False
0,M7,400732,6,AV OF THE AMERICAS/W 29 ST,40.746542,-73.990097,13.0,1,,False
0,M101,403913,4,3 AV/E 14 ST,40.733689,-73.986787,13.0,1,,False
0,M101,402670,5,3 AV/E 17 ST,40.735511,-73.985465,13.0,1,,False
0,M101,405061,6,3 AV/E 21 ST,40.737436,-73.984124,13.0,1,,False
0,M101,403855,7,3 AV/E 23 ST,40.739218,-73.982771,13.0,1,,False
0,M101,402673,8,3 AV/E 26 ST,40.741067,-73.981419,13.0,1,,False
0,M101,402674,9,3 AV/E 29 ST,40.742894,-73.980105,13.0,1,,False
0,M102,403913,4,3 AV/E 14 ST,40.733689,-73.986787,13.0,1,,False
0,M102,402670,5,3 AV/E 17 ST,40.735511,-73.985465,13.0,1,,False
0,M102,405061,6,3 AV/E 21 ST,40.737436,-73.984124,13.0,1,,False
0,M102,403855,7,3 AV/E 23 ST,40.739218,-73.982771,13.0,1,,False
0,M102,402673,8,3 AV/E 26 ST,40.741067,-73.981419,13.0,1,,False
0,M102,402674,9,3 AV/E 29 ST,40.742894,-73.980105,13.0,1,,False
0,M15+,903102,17,1 AV/ E 97 ST,40.784225,-73.943936,23.0,1,,True
0,M15+,401723,18,1 AV/E 106 ST,40.789858,-73.939854,23.0,1,,True
0,M15,401723,52,1 AV/E 106 ST,40.789858,-73.939854,23.0,1,,False
0,M15,903275,49,1 AV/E 97 ST,40.783781,-73.944277,23.0,1,,False
0,M15,401721,50,1 AV/E 99 ST,40.785414,-73.943097,23.0,1,,False
0,M15,401722,51,1 AV/E 102 ST,40.787357,-73.941682,23.0,1,,False
0,M15,401724,53,1 AV/E 108 ST,40.791692,-73.938512,23.0,1,,False
0,M15,401725,54,1 AV/E 111 ST,40.793101,-73.937481,23.0,1,,False
0,M15,401726,55,1 AV/E 113 ST,40.79433,-73.936584,23.0,1,,False
0,M2,400041,35,MADISON AV/E 98 ST,40.788413,-73.95318,23.0,1,,False
0,M2,400042,36,MADISON AV/E 101 ST,40.790304,-73.951799,23.0,1,,False
0,M2,400043,37,MADISON AV/E 102 ST,40.791371,-73.951022,23.0,1,,False
0,M2,400044,38,MADISON AV/E 104 ST,40.792159,-73.950447,23.0,1,,False
0,M2,400045,39,MADISON AV/E 106 ST,40.793434,-73.949511,23.0,1,,False
0,M2,400046,40,MADISON AV/E 107 ST,40.794551,-73.948694,23.0,1,,False
0,M2,404856,41,E 110 ST/MADISON AV,40.796412,-73.948038,23.0,1,,False
0,M1,400041,40,MADISON AV/E 98 ST,40.788413,-73.95318,23.0,1,,False
0,M1,400042,41,MADISON AV/E 101 ST,40.790304,-73.951799,23.0,1,,False
0,M1,400043,42,MADISON AV/E 102 ST,40.791371,-73.951022,23.0,1,,False
0,M1,400044,43,MADISON AV/E 104 ST,40.792159,-73.950447,23.0,1,,False
0,M1,400045,44,MADISON AV/E 106 ST,40.793434,-73.949511,23.0,1,,False
0,M1,400046,45,MADISON AV/E 107 ST,40.794551,-73.948694,23.0,1,,False
0,M1,400047,46,MADISON AV/E 109 ST,40.795813,-73.947779,23.0,1,,False
0,M1,400048,47,MADISON AV/E 112 ST,40.797494,-73.946553,23.0,1,,False
0,M1,404103,48,MADISON AV/E 114 ST,40.798491,-73.945816,23.0,1,,False
0,M3,400041,35,MADISON AV/E 98 ST,40.788413,-73.95318,23.0,1,,False
0,M3,400042,36,MADISON AV/E 101 ST,40.790304,-73.951799,23.0,1,,False
0,M3,400043,37,MADISON AV/E 102 ST,40.791371,-73.951022,23.0,1,,False
0,M3,400044,38,MADISON AV/E 104 ST,40.792159,-73.950447,23.0,1,,False
0,M3,400045,39,MADISON AV/E 106 ST,40.793434,-73.949511,23.0,1,,False
0,M3,400046,40,MADISON AV/E 107 ST,40.794551,-73.948694,23.0,1,,False
0,M3,404856,41,E 110 ST/MADISON AV,40.796412,-73.948038,23.0,1,,False
0,M103,403777,43,3 AV/E 97 ST,40.785746,-73.948862,23.0,1,,False
0,M103,403436,47,3 AV/E 106 ST,40.79189,-73.944367,23.0,1,,False
0,M103,401946,44,3 AV/E 99 ST,40.787906,-73.947273,23.0,1,,False
0,M103,401947,45,3 AV/E 102 ST,40.789273,-73.946287,23.0,1,,False
0,M103,401948,46,3 AV/E 104 ST,40.79054,-73.945358,23.0,1,,False
0,M103,402704,48,3 AV/E 109 ST,40.793765,-73.943005,23.0,1,,False
0,M103,402705,49,3 AV/E 112 ST,40.795775,-73.941518,23.0,1,,False
0,M4,400041,26,MADISON AV/E 98 ST,40.788413,-73.95318,23.0,1,,False
0,M4,400042,27,MADISON AV/E 101 ST,40.790304,-73.951799,23.0,1,,False
0,M4,400043,28,MADISON AV/E 102 ST,40.791371,-73.951022,23.0,1,,False
0,M4,400044,29,MADISON AV/E 104 ST,40.792159,-73.950447,23.0,1,,False
0,M4,400045,30,MADISON AV/E 106 ST,40.793434,-73.949511,23.0,1,,False
0,M4,400046,31,MADISON AV/E 107 ST,40.794551,-73.948694,23.0,1,,False
0,M4,404856,32,E 110 ST/MADISON AV,40.796412,-73.948038,23.0,1,,False
0,M101,403777,34,3 AV/E 97 ST,40.785746,-73.948862,23.0,1,,False
0,M101,403436,38,3 AV/E 106 ST,40.79189,-73.944367,23.0,1,,False
0,M101,401946,35,3 AV/E 99 ST,40.787906,-73.947273,23.0,1,,False
0,M101,401947,36,3 AV/E 102 ST,40.789273,-73.946287,23.0,1,,False
0,M101,401948,37,3 AV/E 104 ST,40.79054,-73.945358,23.0,1,,False
0,M101,402704,39,3 AV/E 109 ST,40.793765,-73.943005,23.0,1,,False
0,M101,402705,40,3 AV/E 112 ST,40.795775,-73.941518,23.0,1,,False
0,M106,400041,7,MADISON AV/E 98 ST,40.788413,-73.95318,23.0,1,,False
0,M106,400042,8,MADISON AV/E 101 ST,40.790304,-73.951799,23.0,1,,False
0,M106,400043,9,MADISON AV/E 102 ST,40.791371,-73.951022,23.0,1,,False
0,M106,400044,10,MADISON AV/E 104 ST,40.792159,-73.950447,23.0,1,,False
0,M106,400045,11,MADISON AV/E 106 ST,40.793434,-73.949511,23.0,1,,False
0,M106,404076,12,E 106 ST/LEXINGTON AV,40.792011,-73.945969,23.0,1,,False
0,M106,404077,13,E 106 ST/3 AV,40.791324,-73.944338,23.0,1,,False
0,M106,401950,14,E 106 ST/2 AV,40.790384,-73.94211,23.0,1,,False
0,M106,401951,15,E 106 ST/1 AV,40.789401,-73.939775,23.0,1,,False
0,M106,803066,16,E 105 ST/FDR DR,40.788214,-73.938425,23.0,1,,False
0,M96,903003,11,E 97 ST/1 AV,40.78421,-73.944775,23.0,1,,False
0,M98,403777,5,3 AV/E 97 ST,40.785746,-73.948862,23.0,1,,False
0,M98,403436,6,3 AV/E 106 ST,40.79189,-73.944367,23.0,1,,False
0,M102,403777,34,3 AV/E 97 ST,40.785746,-73.948862,23.0,1,,False
0,M102,403436,38,3 AV/E 106 ST,40.79189,-73.944367,23.0,1,,False
0,M102,401946,35,3 AV/E 99 ST,40.787906,-73.947273,23.0,1,,False
0,M102,401947,36,3 AV/E 102 ST,40.789273,-73.946287,23.0,1,,False
0,M102,401948,37,3 AV/E 104 ST,40.79054,-73.945358,23.0,1,,False
0,M102,402704,39,3 AV/E 109 ST,40.793765,-73.943005,23.0,1,,False
0,M102,402705,40,3 AV/E 112 ST,40.795775,-73.941518,23.0,1,,False
0,M2,400241,59,ADAM C POWELL BL/W 145 ST,40.821878,-73.938687,32.0,1,,False
0,M2,400242,60,ADAM C POWELL BL/W 147 ST,40.823105,-73.937789,32.0,1,,False
0,M2,404129,61,ADAM C POWELL BL/W 149 ST,40.82426,-73.936943,32.0,1,,False
0,M2,403338,62,ADAM C POWELL BL/W 151 ST,40.825612,-73.935955,32.0,1,,False
0,M2,404837,63,ADAM C POWELL BL/W 153 ST,40.826531,-73.935264,32.0,1,,False
0,M2,400233,51,ADAM C POWELL BL/W 127 ST,40.810475,-73.947009,32.0,1,,False
0,M2,400234,52,ADAM C POWELL BL/W 129 ST,40.811718,-73.946105,32.0,1,,False
0,M2,400236,53,ADAM C POWELL BL/W 133 ST,40.81419,-73.9443,32.0,1,,False
0,M2,400237,54,ADAM C POWELL BL/W 135 ST,40.815549,-73.943309,32.0,1,,False
0,M2,400227,55,ADAM C POWELL BL/W 137 ST,40.816789,-73.942405,32.0,1,,False
0,M2,400238,56,ADAM C POWELL BL/W 139 ST,40.818034,-73.94149,32.0,1,,False
0,M2,400239,57,ADAM C POWELL BL/W 141 ST,40.819296,-73.940571,32.0,1,,False
0,M2,400240,58,ADAM C POWELL BL/W 143 ST,40.820515,-73.939681,32.0,1,,False
0,M1,400061,60,W 139 ST/5 AV,40.815616,-73.936283,32.0,1,,False
0,M1,400062,61,MALCOLM X BL/W 139 ST,40.81694,-73.938615,32.0,1,,False
0,M1,404335,62,MALCOLM X BL/W 142 ST,40.818795,-73.937266,32.0,1,,False
0,M1,400065,63,MALCOLM X BL/W 145 ST,40.82068,-73.935873,32.0,1,,False
0,M1,400066,64,W 147 ST/MALCOLM X BL,40.821952,-73.935729,32.0,1,,False
0,M1,400067,65,W 147 ST/ADAM C POWELL BL,40.822853,-73.937867,32.0,1,,False
0,M1,803003,66,146 ST/LENOX AV,40.821204,-73.936042,32.0,1,,False
0,M3,400398,52,ST NICHOLAS AV/W 127 ST,40.812206,-73.951155,32.0,1,,False
0,M3,400399,53,ST NICHOLAS AV/W 130 ST,40.814014,-73.949575,32.0,1,,False
0,M3,400400,54,ST NICHOLAS AV/W 133 ST,40.815562,-73.948647,32.0,1,,False
0,M3,400401,55,ST NICHOLAS AV/W 135 ST,40.81728,-73.947885,32.0,1,,False
0,M3,403776,56,ST NICHOLAS AV/W 137 ST,40.818358,-73.94731,32.0,1,,False
0,M3,400403,57,ST NICHOLAS AV/W 139 ST,40.82015,-73.946481,32.0,1,,False
0,M3,400404,58,ST NICHOLAS AV/W 141 ST,40.821124,-73.946034,32.0,1,,False
0,M7,400062,58,MALCOLM X BL/W 139 ST,40.81694,-73.938615,32.0,1,,False
0,M7,404335,59,MALCOLM X BL/W 142 ST,40.818795,-73.937266,32.0,1,,False
0,M7,400065,60,MALCOLM X BL/W 145 ST,40.82068,-73.935873,32.0,1,,False
0,M7,400066,61,W 147 ST/MALCOLM X BL,40.821952,-73.935729,32.0,1,,False
0,M7,400067,62,W 147 ST/ADAM C POWELL BL,40.822853,-73.937867,32.0,1,,False
0,M7,803003,63,146 ST/LENOX AV,40.821204,-73.936042,32.0,1,,False
0,M7,401051,53,MALCOLM X BL/W 127 ST,40.809382,-73.944138,32.0,1,,False
0,M7,401052,54,MALCOLM X BL/W 129 ST,40.810635,-73.943223,32.0,1,,False
0,M7,405014,55,MALCOLM X BL/W 132 ST,40.812501,-73.941856,32.0,1,,False
0,M7,401055,56,MALCOLM X BL/W 135 ST,40.813931,-73.940833,32.0,1,,False
0,M7,401056,57,MALCOLM X BL/W 137 ST,40.81575,-73.939483,32.0,1,,False
0,M10,401274,31,FRED DOUGLASS BL/W 127 ST,40.811747,-73.949887,32.0,1,,False
0,M10,401275,32,FRED DOUGLASS BL/W 129 ST,40.812894,-73.949048,32.0,1,,False
0,M10,401276,33,FRED DOUGLASS BL/W 131 ST,40.81414,-73.948137,32.0,1,,False
0,M10,401277,34,FRED DOUGLASS BL/W 133 ST,40.815432,-73.94719,32.0,1,,False
0,M10,403982,35,FRED DOUGLASS BL/W 135 ST,40.816771,-73.946213,32.0,1,,False
0,M10,403832,36,FRED DOUGLASS BL/W 138 ST,40.818645,-73.944849,32.0,1,,False
0,M10,401281,37,FRED DOUGLASS BL/W 141 ST,40.820541,-73.943464,32.0,1,,False
0,M10,401282,38,FRED DOUGLASS BL/W 143 ST,40.821759,-73.942574,32.0,1,,False
0,M10,403826,39,FRED DOUGLASS BL/W 145 ST,40.82312,-73.941579,32.0,1,,False
0,M10,404825,40,FRED DOUGLASS BL/W 148 ST,40.824928,-73.940255,32.0,1,,False
0,M10,404325,41,FRED DOUGLASS BL/MACOMBS PL,40.825817,-73.939658,32.0,1,,False
0,M10,401286,42,FRED DOUGLASS BL/W 153 ST,40.82813,-73.937918,32.0,1,,False
0,M10,401287,43,FRED DOUGLASS BL/W 155 ST,40.829277,-73.937054,32.0,1,,False
0,M10,401288,44,FRED DOUGLASS BL/W 158 ST,40.831209,-73.935693,32.0,1,,False
0,M102,400062,55,MALCOLM X BL/W 139 ST,40.81694,-73.938615,32.0,1,,False
0,M102,404335,56,MALCOLM X BL/W 142 ST,40.818795,-73.937266,32.0,1,,False
0,M102,400065,57,MALCOLM X BL/W 145 ST,40.82068,-73.935873,32.0,1,,False
0,M102,400066,58,W 147 ST/MALCOLM X BL,40.821952,-73.935729,32.0,1,,False
0,M102,400067,59,W 147 ST/ADAM C POWELL BL,40.822853,-73.937867,32.0,1,,False
0,M102,401051,50,MALCOLM X BL/W 127 ST,40.809382,-73.944138,32.0,1,,False
0,M102,401052,51,MALCOLM X BL/W 129 ST,40.810635,-73.943223,32.0,1,,False
0,M102,405014,52,MALCOLM X BL/W 132 ST,40.812501,-73.941856,32.0,1,,False
0,M102,401055,53,MALCOLM X BL/W 135 ST,40.813931,-73.940833,32.0,1,,False
0,M102,401056,54,MALCOLM X BL/W 137 ST,40.81575,-73.939483,32.0,1,,False
0,M102,803024,60,W 146 ST/MALCOLM X  BL,40.821199,-73.936118,32.0,1,,False
0,M2,403267,42,CENTRAL PK N/5 AV,40.797182,-73.949152,28.0,1,,False
0,M2,400224,43,CENTRAL PK N/MALCOLM X BL,40.798395,-73.952601,28.0,1,,False
0,M2,400225,44,CENTRAL PK N/ADAM C POWELL BL,40.799354,-73.954975,28.0,1,,False
0,M2,400226,45,ADAM C POWELL BL/W 113 ST,40.801484,-73.953579,28.0,1,,False
0,M2,400228,46,ADAM C POWELL BL/W 116 ST,40.803426,-73.952158,28.0,1,,False
0,M2,404963,47,ADAM C POWELL BL/WEST 119 ST,40.805343,-73.950713,28.0,1,,False
0,M2,400230,48,ADAM C POWELL BL/W 121 ST,40.806598,-73.949844,28.0,1,,False
0,M2,400231,49,ADAM C POWELL BL/W 123 ST,40.80752,-73.949175,28.0,1,,False
0,M2,404283,50,ADAM C POWELL BL/W 125 ST,40.809158,-73.947978,28.0,1,,False
0,M3,403267,42,CENTRAL PK N/5 AV,40.797182,-73.949152,28.0,1,,False
0,M3,400224,43,CENTRAL PK N/MALCOLM X BL,40.798395,-73.952601,28.0,1,,False
0,M3,400225,44,CENTRAL PK N/ADAM C POWELL BL,40.799354,-73.954975,28.0,1,,False
0,M3,404071,51,ST NICHOLAS AV/W 124 ST,40.810354,-73.952753,28.0,1,,False
0,M3,400390,45,CATHEDRAL PY/FRED DOUGLASS BL,40.80078,-73.958486,28.0,1,,False
0,M3,401040,46,MANHATTAN AV/CATHEDRAL PKY,40.80148,-73.959315,28.0,1,,False
0,M3,405092,47,MANHATTAN AV/W 113 ST,40.803344,-73.957959,28.0,1,,False
0,M3,400394,48,MANHATTAN AV/W 116 ST,40.804877,-73.956842,28.0,1,,False
0,M3,400395,49,MANHATTAN AV/W 119 ST,40.807171,-73.955168,28.0,1,,False
0,M3,400396,50,MANHATTAN AV/W 121 ST,40.808447,-73.954236,28.0,1,,False
0,M7,405092,45,MANHATTAN AV/W 113 ST,40.803344,-73.957959,28.0,1,,False
0,M7,400394,46,MANHATTAN AV/W 116 ST,40.804877,-73.956842,28.0,1,,False
0,M7,405087,44,MANHATTAN AV/W 111 ST,40.80173,-73.959138,28.0,1,,False
0,M7,401044,47,W 116 ST/FRED DOUGLASS BL,40.804229,-73.955203,28.0,1,,False
0,M7,401045,48,W 116 ST/ADAM C POWELL BL,40.802908,-73.952032,28.0,1,,False
0,M7,404341,49,MALCOLM X BL / W 116 ST,40.802336,-73.94928,28.0,1,,False
0,M7,401047,50,MALCOLM X BL/W 119 ST,40.804171,-73.947943,28.0,1,,False
0,M7,404333,51,MALCOLM X BL/W 122 ST,40.806067,-73.946561,28.0,1,,False
0,M7,404334,52,MALCOLM X BL/W 125 ST,40.80804,-73.945118,28.0,1,,False
0,M10,401267,24,FRED DOUGLASS BL/W 111 ST,40.801444,-73.957433,28.0,1,,False
0,M10,401268,25,FRED DOUGLASS BL/W 113 ST,40.802747,-73.956482,28.0,1,,False
0,M10,401269,26,FRED DOUGLASS BL/W 116 ST,40.804742,-73.955025,28.0,1,,False
0,M10,401270,27,FRED DOUGLASS BL/W 119 ST,40.806378,-73.953887,28.0,1,,False
0,M10,401271,28,FRED DOUGLASS BL/W 121 ST,40.807445,-73.953051,28.0,1,,False
0,M10,401272,29,FRED DOUGLASS BL/W 123 ST,40.809069,-73.951847,28.0,1,,False
0,M10,405182,30,FRED DOUGLASS BL/W 125 ST,40.810559,-73.950766,28.0,1,,False
0,M4,403267,33,CENTRAL PK N/5 AV,40.797182,-73.949152,28.0,1,,False
0,M4,400224,34,CENTRAL PK N/MALCOLM X BL,40.798395,-73.952601,28.0,1,,False
0,M4,400225,35,CENTRAL PK N/ADAM C POWELL BL,40.799354,-73.954975,28.0,1,,False
0,M4,400390,36,CATHEDRAL PY/FRED DOUGLASS BL,40.80078,-73.958486,28.0,1,,False
0,M60+,402656,6,W 125 ST/ST NICHOLAS AV,40.810526,-73.952174,28.0,1,,True
0,M60+,402659,7,W 125 ST/MALCOLM X  BL,40.807514,-73.945026,28.0,1,,True
0,M101,402507,49,W 125 ST/MALCOLM X BL,40.808026,-73.945964,28.0,1,,False
0,M101,402509,51,W 125 ST/FRED DOUGLASS BL,40.810402,-73.951598,28.0,1,,False
0,M101,402506,48,W 125 ST/5 AV,40.806542,-73.94244,28.0,1,,False
0,M101,402508,50,W 125 ST/ADAM C POWELL BL,40.809228,-73.948781,28.0,1,,False
0,M102,404341,46,MALCOLM X BL / W 116 ST,40.802336,-73.94928,28.0,1,,False
0,M102,401047,47,MALCOLM X BL/W 119 ST,40.804171,-73.947943,28.0,1,,False
0,M102,404333,48,MALCOLM X BL/W 122 ST,40.806067,-73.946561,28.0,1,,False
0,M102,404334,49,MALCOLM X BL/W 125 ST,40.80804,-73.945118,28.0,1,,False
0,M116,405092,7,MANHATTAN AV/W 113 ST,40.803344,-73.957959,28.0,1,,False
0,M116,400394,8,MANHATTAN AV/W 116 ST,40.804877,-73.956842,28.0,1,,False
0,M116,405087,6,MANHATTAN AV/W 111 ST,40.80173,-73.959138,28.0,1,,False
0,M116,401044,9,W 116 ST/FRED DOUGLASS BL,40.804229,-73.955203,28.0,1,,False
0,M116,401045,10,W 116 ST/ADAM C POWELL BL,40.802908,-73.952032,28.0,1,,False
0,M116,401988,11,W 116 ST/MALCOLM X BL,40.801755,-73.949213,28.0,1,,False
0,M116,401989,12,W 116 ST/5 AV,40.800666,-73.94671,28.0,1,,False
0,M3,400422,73,ST NICHOLAS AV/W 179 ST,40.848225,-73.934397,34.0,1,,False
0,M3,400423,74,ST NICHOLAS AV/W 181 ST,40.849572,-73.933416,34.0,1,,False
0,M3,403976,75,ST NICHOLAS AV/W 184 ST,40.851369,-73.932102,34.0,1,,False
0,M3,400426,76,ST NICHOLAS AV/W 187 ST,40.853358,-73.930644,34.0,1,,False
0,M3,404046,77,ST NICHOLAS AV/W 190 ST,40.855196,-73.929301,34.0,1,,False
0,M3,404928,78,ST NICHOLAS AV/W 193 ST,40.856667,-73.928265,34.0,1,,False
0,M3,903219,79,FT GEORGE AV/66 FT GEORGE AV,40.858092,-73.925535,34.0,1,,False
0,M4,400631,71,FT WASHINGTON AV/W 181 ST,40.851202,-73.938078,34.0,1,,False
0,M4,400632,72,FT WASHINGTON AV/W 183 ST,40.852396,-73.937654,34.0,1,,False
0,M4,400633,73,FT WASHINGTON AV/W 185 ST,40.853639,-73.937266,34.0,1,,False
0,M4,400634,74,FT WASHINGTON AV/W 187 ST,40.85507,-73.936723,34.0,1,,False
0,M4,400635,75,FT WASHINGTON AV/W 190 ST,40.857335,-73.935335,34.0,1,,False
0,M4,400636,76,FT WASHINGTON AV/CABRINI BL,40.858996,-73.934186,34.0,1,,False
0,M4,404117,77,FT TRYON PARK/OPP CAFE LOT,40.863331,-73.932397,34.0,1,,False
0,M4,803067,78,MARGARET CORBIN DR/CLOISTERS,40.865644,-73.932059,34.0,1,,False
0,M101,402744,73,AMSTERDAM AV/W 179 ST,40.847008,-73.931612,34.0,1,,False
0,M101,402745,74,AMSTERDAM AV/W 181 ST,40.848358,-73.930616,34.0,1,,False
0,M101,405185,75,AMSTERDAM AV/W 183 ST,40.849806,-73.929603,34.0,1,,False
0,M101,402748,76,AMSTERDAM AV/W 187 ST,40.852204,-73.927829,34.0,1,,False
0,M101,402749,77,AMSTERDAM AV/W 190 ST,40.853927,-73.926552,34.0,1,,False
0,M101,803020,78,AMSTERDAM AV/193 ST,40.855683,-73.925293,34.0,1,,False
0,M98,403439,9,W 179 ST/AMSTERDAM AV,40.847044,-73.932251,34.0,1,,False
0,M98,403440,10,W 179 ST/ST NICHOLAS AV,40.848025,-73.934477,34.0,1,,False
0,M98,404194,11,W 179 ST/WADSWORTH AV,40.848514,-73.935778,34.0,1,,False
0,M98,403670,12,W 179 ST/BROADWAY,40.849167,-73.937993,34.0,1,,False
0,M98,400631,13,FT WASHINGTON AV/W 181 ST,40.851202,-73.938078,34.0,1,,False
0,M98,400632,14,FT WASHINGTON AV/W 183 ST,40.852396,-73.937654,34.0,1,,False
0,M98,400633,15,FT WASHINGTON AV/W 185 ST,40.853639,-73.937266,34.0,1,,False
0,M98,400634,16,FT WASHINGTON AV/W 187 ST,40.85507,-73.936723,34.0,1,,False
0,M98,400635,17,FT WASHINGTON AV/W 190 ST,40.857335,-73.935335,34.0,1,,False
0,M98,400636,18,FT WASHINGTON AV/CABRINI BL,40.858996,-73.934186,34.0,1,,False
0,M60+,503357,12,HOYT AV/31 ST,40.770207,-73.917431,114.0,1,,True
0,M60+,505254,13,ASTORIA BL S/STEINWAY ST,40.76879,-73.910815,114.0,1,,True
