stop_id,direction_id,route_id,stop_sequence,stop_name,stop_lat,stop_lon,precinct,ADA,ADA Notes
0,0,1,1,South Ferry,40.702068,-74.013664,1.0,1,
1,1,1,38,South Ferry,40.702068,-74.013664,1.0,1,
2,0,1,2,Rector St,40.707513,-74.013783,1.0,0,
3,1,1,37,Rector St,40.707513,-74.013783,1.0,0,
4,0,1,3,WTC Cortlandt,40.711835,-74.012188,1.0,1,
5,1,1,36,WTC Cortlandt,40.711835,-74.012188,1.0,1,
6,0,1,4,Chambers St,40.715478,-74.009266,1.0,1,
7,0,2,20,Chambers St,40.715478,-74.009266,1.0,1,
8,0,3,23,Chambers St,40.715478,-74.009266,1.0,1,
9,1,1,35,Chambers St,40.715478,-74.009266,1.0,1,
10,1,2,42,Chambers St,40.715478,-74.009266,1.0,1,
11,1,3,12,Chambers St,40.715478,-74.009266,1.0,1,
12,0,1,5,Franklin St,40.719318,-74.006886,1.0,0,
13,0,2,21,Franklin St,40.719318,-74.006886,1.0,0,
14,1,1,34,Franklin St,40.719318,-74.006886,1.0,0,
15,1,2,41,Franklin St,40.719318,-74.006886,1.0,0,
16,0,1,6,Canal St,40.722854,-74.006277,1.0,0,
17,0,2,22,Canal St,40.722854,-74.006277,1.0,0,
18,1,1,33,Canal St,40.722854,-74.006277,1.0,0,
19,1,2,40,Canal St,40.722854,-74.006277,1.0,0,
20,0,1,7,Houston St,40.728251,-74.005367,1.0,0,
21,0,2,23,Houston St,40.728251,-74.005367,1.0,0,
22,1,1,32,Houston St,40.728251,-74.005367,1.0,0,
23,1,2,39,Houston St,40.728251,-74.005367,1.0,0,
24,0,2,17,Wall St,40.706821,-74.0091,1.0,0,
25,0,3,20,Wall St,40.706821,-74.0091,1.0,0,
26,1,2,45,Wall St,40.706821,-74.0091,1.0,0,
27,1,3,15,Wall St,40.706821,-74.0091,1.0,0,
28,0,2,18,Fulton St,40.709416,-74.006571,1.0,1,
29,0,3,21,Fulton St,40.709416,-74.006571,1.0,1,
30,1,2,44,Fulton St,40.709416,-74.006571,1.0,1,
31,1,3,14,Fulton St,40.709416,-74.006571,1.0,1,
32,0,2,19,Park Place,40.713051,-74.008811,1.0,0,
33,0,3,22,Park Place,40.713051,-74.008811,1.0,0,
34,1,2,43,Park Place,40.713051,-74.008811,1.0,0,
35,1,3,13,Park Place,40.713051,-74.008811,1.0,0,
36,0,4,18,Bowling Green,40.704817,-74.014065,1.0,1,
37,0,5,15,Bowling Green,40.704817,-74.014065,1.0,1,
38,1,4,37,Bowling Green,40.704817,-74.014065,1.0,1,
39,1,5,25,Bowling Green,40.704817,-74.014065,1.0,1,
40,0,4,19,Wall St,40.707557,-74.011862,1.0,0,
41,0,5,16,Wall St,40.707557,-74.011862,1.0,0,
42,1,4,36,Wall St,40.707557,-74.011862,1.0,0,
43,1,5,24,Wall St,40.707557,-74.011862,1.0,0,
44,0,4,20,Fulton St,40.710368,-74.009509,1.0,1,
45,0,5,17,Fulton St,40.710368,-74.009509,1.0,1,
46,1,4,35,Fulton St,40.710368,-74.009509,1.0,1,
47,1,5,23,Fulton St,40.710368,-74.009509,1.0,1,
48,0,4,21,Brooklyn Bridge-City Hall,40.713065,-74.004131,1.0,1,
49,0,5,18,Brooklyn Bridge-City Hall,40.713065,-74.004131,1.0,1,
50,0,6,1,Brooklyn Bridge-City Hall,40.713065,-74.004131,1.0,1,
51,0,6X,1,Brooklyn Bridge-City Hall,40.713065,-74.004131,1.0,1,
52,1,4,34,Brooklyn Bridge-City Hall,40.713065,-74.004131,1.0,1,
53,1,5,22,Brooklyn Bridge-City Hall,40.713065,-74.004131,1.0,1,
54,1,6,38,Brooklyn Bridge-City Hall,40.713065,-74.004131,1.0,1,
55,1,6X,33,Brooklyn Bridge-City Hall,40.713065,-74.004131,1.0,1,
56,0,A,31,Fulton St,40.710197,-74.007691,1.0,1,
57,0,C,17,Fulton St,40.710197,-74.007691,1.0,1,
58,1,A,29,Fulton St,40.710197,-74.007691,1.0,1,
59,1,C,24,Fulton St,40.710197,-74.007691,1.0,1,
60,0,A,32,Chambers St,40.714111,-74.008585,1.0,0,
61,0,C,18,Chambers St,40.714111,-74.008585,1.0,0,
62,1,A,28,Chambers St,40.714111,-74.008585,1.0,0,
63,1,C,23,Chambers St,40.714111,-74.008585,1.0,0,
64,0,A,33,Canal St,40.720824,-74.005229,1.0,0,
65,0,C,19,Canal St,40.720824,-74.005229,1.0,0,
66,0,E,2,Canal St,40.720824,-74.005229,1.0,0,
67,1,A,27,Canal St,40.720824,-74.005229,1.0,0,
68,1,C,22,Canal St,40.720824,-74.005229,1.0,0,
69,1,E,31,Canal St,40.720824,-74.005229,1.0,0,
70,0,A,34,Spring St,40.726227,-74.003739,1.0,0,
71,0,C,20,Spring St,40.726227,-74.003739,1.0,0,
72,0,E,3,Spring St,40.726227,-74.003739,1.0,0,
73,1,A,26,Spring St,40.726227,-74.003739,1.0,0,
74,1,C,21,Spring St,40.726227,-74.003739,1.0,0,
75,1,E,30,Spring St,40.726227,-74.003739,1.0,0,
76,0,E,1,World Trade Center,40.712582,-74.009781,1.0,1,
77,1,E,32,World Trade Center,40.712582,-74.009781,1.0,1,
78,0,J,1,Broad St,40.706476,-74.011056,1.0,0,
79,0,Z,1,Broad St,40.706476,-74.011056,1.0,0,
80,1,J,30,Broad St,40.706476,-74.011056,1.0,0,
81,1,Z,21,Broad St,40.706476,-74.011056,1.0,0,
82,0,J,2,Fulton St,40.710374,-74.007582,1.0,1,
83,0,Z,2,Fulton St,40.710374,-74.007582,1.0,1,
84,1,J,29,Fulton St,40.710374,-74.007582,1.0,1,
85,1,Z,20,Fulton St,40.710374,-74.007582,1.0,1,
86,0,N,23,Whitehall St-South Ferry,40.703087,-74.012994,1.0,0,
87,0,W,22,Whitehall St-South Ferry,40.703087,-74.012994,1.0,0,
88,0,R,17,Whitehall St-South Ferry,40.703087,-74.012994,1.0,0,
89,1,N,23,Whitehall St-South Ferry,40.703087,-74.012994,1.0,0,
90,1,W,23,Whitehall St-South Ferry,40.703087,-74.012994,1.0,0,
91,1,R,29,Whitehall St-South Ferry,40.703087,-74.012994,1.0,0,
92,0,N,24,Rector St,40.70722,-74.013342,1.0,0,
93,0,W,23,Rector St,40.70722,-74.013342,1.0,0,
94,0,R,18,Rector St,40.70722,-74.013342,1.0,0,
95,1,N,22,Rector St,40.70722,-74.013342,1.0,0,
96,1,W,22,Rector St,40.70722,-74.013342,1.0,0,
97,1,R,28,Rector St,40.70722,-74.013342,1.0,0,
98,0,N,25,Cortlandt St,40.710668,-74.011029,1.0,1,
99,0,W,24,Cortlandt St,40.710668,-74.011029,1.0,1,
100,0,R,19,Cortlandt St,40.710668,-74.011029,1.0,1,
101,1,N,21,Cortlandt St,40.710668,-74.011029,1.0,1,
102,1,W,21,Cortlandt St,40.710668,-74.011029,1.0,1,
103,1,R,27,Cortlandt St,40.710668,-74.011029,1.0,1,
104,0,N,26,City Hall,40.713282,-74.006978,1.0,0,
105,0,W,25,City Hall,40.713282,-74.006978,1.0,0,
106,0,R,20,City Hall,40.713282,-74.006978,1.0,0,
107,1,N,20,City Hall,40.713282,-74.006978,1.0,0,
108,1,W,20,City Hall,40.713282,-74.006978,1.0,0,
109,1,R,26,City Hall,40.713282,-74.006978,1.0,0,
110,0,N,27,Canal St,40.719527,-74.001775,1.0,0,
111,0,W,26,Canal St,40.719527,-74.001775,1.0,0,
112,0,R,21,Canal St,40.719527,-74.001775,1.0,0,
113,1,N,19,Canal St,40.719527,-74.001775,1.0,0,
114,1,W,19,Canal St,40.719527,-74.001775,1.0,0,
115,1,R,25,Canal St,40.719527,-74.001775,1.0,0,
116,0,1,8,Christopher St-Sheridan Sq,40.733422,-74.002906,6.0,0,
117,0,2,24,Christopher St-Sheridan Sq,40.733422,-74.002906,6.0,0,
118,1,1,31,Christopher St-Sheridan Sq,40.733422,-74.002906,6.0,0,
119,1,2,38,Christopher St-Sheridan Sq,40.733422,-74.002906,6.0,0,
120,0,1,9,14 St,40.737826,-74.000201,6.0,0,
121,0,2,25,14 St,40.737826,-74.000201,6.0,0,
122,0,3,24,14 St,40.737826,-74.000201,6.0,0,
123,1,1,30,14 St,40.737826,-74.000201,6.0,0,
124,1,2,37,14 St,40.737826,-74.000201,6.0,0,
125,1,3,11,14 St,40.737826,-74.000201,6.0,0,
126,0,A,35,W 4 St-Wash Sq,40.732338,-74.000495,6.0,1,
127,0,C,21,W 4 St-Wash Sq,40.732338,-74.000495,6.0,1,
128,0,E,4,W 4 St-Wash Sq,40.732338,-74.000495,6.0,1,
129,1,A,25,W 4 St-Wash Sq,40.732338,-74.000495,6.0,1,
130,1,C,20,W 4 St-Wash Sq,40.732338,-74.000495,6.0,1,
131,1,E,29,W 4 St-Wash Sq,40.732338,-74.000495,6.0,1,
132,0,B,12,W 4 St-Wash Sq,40.732338,-74.000495,6.0,1,
133,0,D,23,W 4 St-Wash Sq,40.732338,-74.000495,6.0,1,
134,0,F,27,W 4 St-Wash Sq,40.732338,-74.000495,6.0,1,
135,0,FX,21,W 4 St-Wash Sq,40.732338,-74.000495,6.0,1,
136,0,M,15,W 4 St-Wash Sq,40.732338,-74.000495,6.0,1,
137,1,B,26,W 4 St-Wash Sq,40.732338,-74.000495,6.0,1,
138,1,D,19,W 4 St-Wash Sq,40.732338,-74.000495,6.0,1,
139,1,F,19,W 4 St-Wash Sq,40.732338,-74.000495,6.0,1,
140,1,FX,19,W 4 St-Wash Sq,40.732338,-74.000495,6.0,1,
141,1,M,22,W 4 St-Wash Sq,40.732338,-74.000495,6.0,1,
142,0,L,23,6 Av,40.737335,-73.996786,6.0,0,
143,1,L,2,6 Av,40.737335,-73.996786,6.0,0,
144,0,1,10,18 St,40.74104,-73.997871,13.0,0,
145,0,2,26,18 St,40.74104,-73.997871,13.0,0,
146,1,1,29,18 St,40.74104,-73.997871,13.0,0,
147,1,2,36,18 St,40.74104,-73.997871,13.0,0,
148,0,1,11,23 St,40.744081,-73.995657,13.0,0,
149,0,2,27,23 St,40.744081,-73.995657,13.0,0,
150,1,1,28,23 St,40.744081,-73.995657,13.0,0,
151,1,2,35,23 St,40.744081,-73.995657,13.0,0,
152,0,1,12,28 St,40.747215,-73.993365,13.0,0,
153,0,2,28,28 St,40.747215,-73.993365,13.0,0,
154,1,1,27,28 St,40.747215,-73.993365,13.0,0,
155,1,2,34,28 St,40.747215,-73.993365,13.0,0,
156,0,4,26,14 St-Union Sq,40.734673,-73.989951,13.0,0,
157,0,5,19,14 St-Union Sq,40.734673,-73.989951,13.0,0,
158,0,6,6,14 St-Union Sq,40.734673,-73.989951,13.0,0,
159,0,6X,6,14 St-Union Sq,40.734673,-73.989951,13.0,0,
160,1,4,29,14 St-Union Sq,40.734673,-73.989951,13.0,0,
161,1,5,21,14 St-Union Sq,40.734673,-73.989951,13.0,0,
162,1,6,33,14 St-Union Sq,40.734673,-73.989951,13.0,0,
163,1,6X,28,14 St-Union Sq,40.734673,-73.989951,13.0,0,
164,0,4,27,23 St,40.739864,-73.986599,13.0,1,
165,0,6,7,23 St,40.739864,-73.986599,13.0,1,
166,0,6X,7,23 St,40.739864,-73.986599,13.0,1,
167,1,4,28,23 St,40.739864,-73.986599,13.0,1,
168,1,6,32,23 St,40.739864,-73.986599,13.0,1,
169,1,6X,27,23 St,40.739864,-73.986599,13.0,1,
170,0,4,28,28 St,40.74307,-73.984264,13.0,2,Downtown only
171,0,6,8,28 St,40.74307,-73.984264,13.0,2,Downtown only
172,0,6X,8,28 St,40.74307,-73.984264,13.0,2,Downtown only
173,1,4,27,28 St,40.74307,-73.984264,13.0,2,Downtown only
174,1,6,31,28 St,40.74307,-73.984264,13.0,2,Downtown only
175,1,6X,26,28 St,40.74307,-73.984264,13.0,2,Downtown only
176,0,F,28,14 St,40.738228,-73.996209,13.0,0,
177,0,FX,22,14 St,40.738228,-73.996209,13.0,0,
178,0,M,16,14 St,40.738228,-73.996209,13.0,0,
179,1,F,18,14 St,40.738228,-73.996209,13.0,0,
180,1,FX,18,14 St,40.738228,-73.996209,13.0,0,
181,1,M,21,14 St,40.738228,-73.996209,13.0,0,
182,0,F,29,23 St,40.742878,-73.992821,13.0,0,
183,0,FX,23,23 St,40.742878,-73.992821,13.0,0,
184,0,M,17,23 St,40.742878,-73.992821,13.0,0,
185,1,F,17,23 St,40.742878,-73.992821,13.0,0,
186,1,FX,17,23 St,40.742878,-73.992821,13.0,0,
187,1,M,20,23 St,40.742878,-73.992821,13.0,0,
188,0,L,21,3 Av,40.732849,-73.986122,13.0,0,
189,1,L,4,3 Av,40.732849,-73.986122,13.0,0,
190,0,N,30,14 St-Union Sq,40.735736,-73.990568,13.0,1,
191,0,W,29,14 St-Union Sq,40.735736,-73.990568,13.0,1,
192,0,Q,24,14 St-Union Sq,40.735736,-73.990568,13.0,1,
193,0,R,24,14 St-Union Sq,40.735736,-73.990568,13.0,1,
194,1,N,16,14 St-Union Sq,40.735736,-73.990568,13.0,1,
195,1,W,16,14 St-Union Sq,40.735736,-73.990568,13.0,1,
196,1,Q,11,14 St-Union Sq,40.735736,-73.990568,13.0,1,
197,1,R,22,14 St-Union Sq,40.735736,-73.990568,13.0,1,
198,0,N,31,23 St,40.741303,-73.989344,13.0,0,
199,0,W,30,23 St,40.741303,-73.989344,13.0,0,
200,0,Q,25,23 St,40.741303,-73.989344,13.0,0,
201,0,R,25,23 St,40.741303,-73.989344,13.0,0,
202,1,N,15,23 St,40.741303,-73.989344,13.0,0,
203,1,W,15,23 St,40.741303,-73.989344,13.0,0,
204,1,Q,10,23 St,40.741303,-73.989344,13.0,0,
205,1,R,21,23 St,40.741303,-73.989344,13.0,0,
206,0,N,32,28 St,40.745494,-73.988691,13.0,0,
207,0,W,31,28 St,40.745494,-73.988691,13.0,0,
208,0,Q,26,28 St,40.745494,-73.988691,13.0,0,
209,0,R,26,28 St,40.745494,-73.988691,13.0,0,
210,1,N,14,28 St,40.745494,-73.988691,13.0,0,
211,1,W,14,28 St,40.745494,-73.988691,13.0,0,
212,1,Q,9,28 St,40.745494,-73.988691,13.0,0,
213,1,R,20,28 St,40.745494,-73.988691,13.0,0,
214,0,1,13,34 St-Penn Station,40.750373,-73.991057,14.0,1,
215,0,2,29,34 St-Penn Station,40.750373,-73.991057,14.0,1,
216,0,3,25,34 St-Penn Station,40.750373,-73.991057,14.0,1,
217,1,1,26,34 St-Penn Station,40.750373,-73.991057,14.0,1,
218,1,2,33,34 St-Penn Station,40.750373,-73.991057,14.0,1,
219,1,3,10,34 St-Penn Station,40.750373,-73.991057,14.0,1,
220,0,1,14,Times Sq-42 St,40.75529,-73.987495,14.0,1,
221,0,2,30,Times Sq-42 St,40.75529,-73.987495,14.0,1,
222,0,3,26,Times Sq-42 St,40.75529,-73.987495,14.0,1,
223,1,1,25,Times Sq-42 St,40.75529,-73.987495,14.0,1,
224,1,2,32,Times Sq-42 St,40.75529,-73.987495,14.0,1,
225,1,3,9,Times Sq-42 St,40.75529,-73.987495,14.0,1,
226,0,4,29,33 St,40.746081,-73.982076,14.0,0,
227,0,6,9,33 St,40.746081,-73.982076,14.0,0,
228,0,6X,9,33 St,40.746081,-73.982076,14.0,0,
229,1,4,26,33 St,40.746081,-73.982076,14.0,0,
230,1,6,30,33 St,40.746081,-73.982076,14.0,0,
231,1,6X,25,33 St,40.746081,-73.982076,14.0,0,
232,0,4,30,Grand Central-42 St,40.751776,-73.976848,14.0,1,
233,0,5,20,Grand Central-42 St,40.751776,-73.976848,14.0,1,
234,0,6,10,Grand Central-42 St,40.751776,-73.976848,14.0,1,
235,0,6X,10,Grand Central-42 St,40.751776,-73.976848,14.0,1,
236,1,4,25,Grand Central-42 St,40.751776,-73.976848,14.0,1,
237,1,5,20,Grand Central-42 St,40.751776,-73.976848,14.0,1,
238,1,6,29,Grand Central-42 St,40.751776,-73.976848,14.0,1,
239,1,6X,24,Grand Central-42 St,40.751776,-73.976848,14.0,1,
240,0,7,2,Times Sq-42 St,40.755477,-73.987691,14.0,1,
241,0,7X,2,Times Sq-42 St,40.755477,-73.987691,14.0,1,
242,1,7,21,Times Sq-42 St,40.755477,-73.987691,14.0,1,
243,1,7X,11,Times Sq-42 St,40.755477,-73.987691,14.0,1,
244,0,7,3,5 Av,40.753821,-73.981963,14.0,0,
245,0,7X,3,5 Av,40.753821,-73.981963,14.0,0,
246,1,7,20,5 Av,40.753821,-73.981963,14.0,0,
247,1,7X,10,5 Av,40.753821,-73.981963,14.0,0,
248,0,GS,1,Grand Central-42 St,40.752769,-73.979189,14.0,1,
249,1,GS,2,Grand Central-42 St,40.752769,-73.979189,14.0,1,
250,0,GS,2,Times Sq-42 St,40.755983,-73.986229,14.0,0,
251,1,GS,1,Times Sq-42 St,40.755983,-73.986229,14.0,0,
252,0,A,38,34 St-Penn Station,40.752287,-73.993391,14.0,1,
253,0,C,24,34 St-Penn Station,40.752287,-73.993391,14.0,1,
254,0,E,7,34 St-Penn Station,40.752287,-73.993391,14.0,1,
255,1,A,22,34 St-Penn Station,40.752287,-73.993391,14.0,1,
256,1,C,17,34 St-Penn Station,40.752287,-73.993391,14.0,1,
257,1,E,26,34 St-Penn Station,40.752287,-73.993391,14.0,1,
258,0,A,39,42 St-Port Authority Bus Terminal,40.757308,-73.989735,14.0,1,
259,0,C,25,42 St-Port Authority Bus Terminal,40.757308,-73.989735,14.0,1,
260,0,E,8,42 St-Port Authority Bus Terminal,40.757308,-73.989735,14.0,1,
261,1,A,21,42 St-Port Authority Bus Terminal,40.757308,-73.989735,14.0,1,
262,1,C,16,42 St-Port Authority Bus Terminal,40.757308,-73.989735,14.0,1,
263,1,E,25,42 St-Port Authority Bus Terminal,40.757308,-73.989735,14.0,1,
264,0,B,13,34 St-Herald Sq,40.749719,-73.987823,14.0,1,
265,0,D,24,34 St-Herald Sq,40.749719,-73.987823,14.0,1,
266,0,F,30,34 St-Herald Sq,40.749719,-73.987823,14.0,1,
267,0,FX,24,34 St-Herald Sq,40.749719,-73.987823,14.0,1,
268,0,M,18,34 St-Herald Sq,40.749719,-73.987823,14.0,1,
269,1,B,25,34 St-Herald Sq,40.749719,-73.987823,14.0,1,
270,1,D,18,34 St-Herald Sq,40.749719,-73.987823,14.0,1,
271,1,F,16,34 St-Herald Sq,40.749719,-73.987823,14.0,1,
272,1,FX,16,34 St-Herald Sq,40.749719,-73.987823,14.0,1,
273,1,M,19,34 St-Herald Sq,40.749719,-73.987823,14.0,1,
274,0,B,14,42 St-Bryant Pk,40.754222,-73.984569,14.0,0,
275,0,D,25,42 St-Bryant Pk,40.754222,-73.984569,14.0,0,
276,0,F,31,42 St-Bryant Pk,40.754222,-73.984569,14.0,0,
277,0,FX,25,42 St-Bryant Pk,40.754222,-73.984569,14.0,0,
278,0,M,19,42 St-Bryant Pk,40.754222,-73.984569,14.0,0,
279,1,B,24,42 St-Bryant Pk,40.754222,-73.984569,14.0,0,
280,1,D,17,42 St-Bryant Pk,40.754222,-73.984569,14.0,0,
281,1,F,15,42 St-Bryant Pk,40.754222,-73.984569,14.0,0,
282,1,FX,15,42 St-Bryant Pk,40.754222,-73.984569,14.0,0,
283,1,M,18,42 St-Bryant Pk,40.754222,-73.984569,14.0,0,
284,0,N,33,34 St-Herald Sq,40.749567,-73.98795,14.0,1,
285,0,W,32,34 St-Herald Sq,40.749567,-73.98795,14.0,1,
286,0,Q,27,34 St-Herald Sq,40.749567,-73.98795,14.0,1,
287,0,R,27,34 St-Herald Sq,40.749567,-73.98795,14.0,1,
288,1,N,13,34 St-Herald Sq,40.749567,-73.98795,14.0,1,
289,1,W,13,34 St-Herald Sq,40.749567,-73.98795,14.0,1,
290,1,Q,8,34 St-Herald Sq,40.749567,-73.98795,14.0,1,
291,1,R,19,34 St-Herald Sq,40.749567,-73.98795,14.0,1,
292,0,N,34,Times Sq-42 St,40.754672,-73.986754,14.0,1,
293,0,W,33,Times Sq-42 St,40.754672,-73.986754,14.0,1,
294,0,Q,28,Times Sq-42 St,40.754672,-73.986754,14.0,1,
295,0,R,28,Times Sq-42 St,40.754672,-73.986754,14.0,1,
296,1,N,12,Times Sq-42 St,40.754672,-73.986754,14.0,1,
297,1,W,12,Times Sq-42 St,40.754672,-73.986754,14.0,1,
298,1,Q,7,Times Sq-42 St,40.754672,-73.986754,14.0,1,
299,1,R,18,Times Sq-42 St,40.754672,-73.986754,14.0,1,
300,0,1,15,50 St,40.761728,-73.983849,18.0,0,
301,0,2,31,50 St,40.761728,-73.983849,18.0,0,
302,1,1,24,50 St,40.761728,-73.983849,18.0,0,
303,1,2,31,50 St,40.761728,-73.983849,18.0,0,
304,0,1,16,59 St-Columbus Circle,40.768247,-73.981929,18.0,1,
305,0,2,32,59 St-Columbus Circle,40.768247,-73.981929,18.0,1,
306,1,1,23,59 St-Columbus Circle,40.768247,-73.981929,18.0,1,
307,1,2,30,59 St-Columbus Circle,40.768247,-73.981929,18.0,1,
308,0,4,31,51 St,40.757107,-73.97192,18.0,1,
309,0,6,11,51 St,40.757107,-73.97192,18.0,1,
310,0,6X,11,51 St,40.757107,-73.97192,18.0,1,
311,1,4,24,51 St,40.757107,-73.97192,18.0,1,
312,1,6,28,51 St,40.757107,-73.97192,18.0,1,
313,1,6X,23,51 St,40.757107,-73.97192,18.0,1,
314,0,A,40,50 St,40.762456,-73.985984,18.0,2,Downtown only
315,0,C,26,50 St,40.762456,-73.985984,18.0,2,Downtown only
316,0,E,9,50 St,40.762456,-73.985984,18.0,2,Downtown only
317,1,A,20,50 St,40.762456,-73.985984,18.0,2,Downtown only
318,1,C,15,50 St,40.762456,-73.985984,18.0,2,Downtown only
319,1,E,24,50 St,40.762456,-73.985984,18.0,2,Downtown only
320,0,A,41,59 St-Columbus Circle,40.768296,-73.981736,18.0,1,
321,0,B,17,59 St-Columbus Circle,40.768296,-73.981736,18.0,1,
322,0,C,27,59 St-Columbus Circle,40.768296,-73.981736,18.0,1,
323,0,D,28,59 St-Columbus Circle,40.768296,-73.981736,18.0,1,
324,1,A,19,59 St-Columbus Circle,40.768296,-73.981736,18.0,1,
325,1,B,21,59 St-Columbus Circle,40.768296,-73.981736,18.0,1,
326,1,C,14,59 St-Columbus Circle,40.768296,-73.981736,18.0,1,
327,1,D,14,59 St-Columbus Circle,40.768296,-73.981736,18.0,1,
328,0,B,15,47-50 Sts-Rockefeller Ctr,40.758663,-73.981329,18.0,1,
329,0,D,26,47-50 Sts-Rockefeller Ctr,40.758663,-73.981329,18.0,1,
330,0,F,32,47-50 Sts-Rockefeller Ctr,40.758663,-73.981329,18.0,1,
331,0,FX,26,47-50 Sts-Rockefeller Ctr,40.758663,-73.981329,18.0,1,
332,0,M,20,47-50 Sts-Rockefeller Ctr,40.758663,-73.981329,18.0,1,
333,1,B,23,47-50 Sts-Rockefeller Ctr,40.758663,-73.981329,18.0,1,
334,1,D,16,47-50 Sts-Rockefeller Ctr,40.758663,-73.981329,18.0,1,
335,1,F,14,47-50 Sts-Rockefeller Ctr,40.758663,-73.981329,18.0,1,
336,1,FX,14,47-50 Sts-Rockefeller Ctr,40.758663,-73.981329,18.0,1,
337,1,M,17,47-50 Sts-Rockefeller Ctr,40.758663,-73.981329,18.0,1,
338,0,B,16,7 Av,40.762862,-73.981637,18.0,0,
339,0,D,27,7 Av,40.762862,-73.981637,18.0,0,
340,0,E,10,7 Av,40.762862,-73.981637,18.0,0,
341,1,B,22,7 Av,40.762862,-73.981637,18.0,0,
342,1,D,15,7 Av,40.762862,-73.981637,18.0,0,
343,1,E,23,7 Av,40.762862,-73.981637,18.0,0,
344,0,E,11,5 Av/53 St,40.760167,-73.975224,18.0,0,
345,0,M,21,5 Av/53 St,40.760167,-73.975224,18.0,0,
346,1,E,22,5 Av/53 St,40.760167,-73.975224,18.0,0,
347,1,M,16,5 Av/53 St,40.760167,-73.975224,18.0,0,
348,0,F,33,57 St,40.763972,-73.97745,18.0,0,
349,0,FX,27,57 St,40.763972,-73.97745,18.0,0,
350,1,F,13,57 St,40.763972,-73.97745,18.0,0,
351,1,FX,13,57 St,40.763972,-73.97745,18.0,0,
352,0,N,35,49 St,40.759901,-73.984139,18.0,2,Uptown only
353,0,W,34,49 St,40.759901,-73.984139,18.0,2,Uptown only
354,0,Q,29,49 St,40.759901,-73.984139,18.0,2,Uptown only
355,0,R,29,49 St,40.759901,-73.984139,18.0,2,Uptown only
356,1,N,11,49 St,40.759901,-73.984139,18.0,2,Uptown only
357,1,W,11,49 St,40.759901,-73.984139,18.0,2,Uptown only
358,1,Q,6,49 St,40.759901,-73.984139,18.0,2,Uptown only
359,1,R,17,49 St,40.759901,-73.984139,18.0,2,Uptown only
360,0,N,36,57 St-7 Av,40.764664,-73.980658,18.0,1,
361,0,W,35,57 St-7 Av,40.764664,-73.980658,18.0,1,
362,0,Q,30,57 St-7 Av,40.764664,-73.980658,18.0,1,
363,0,R,30,57 St-7 Av,40.764664,-73.980658,18.0,1,
364,1,N,10,57 St-7 Av,40.764664,-73.980658,18.0,1,
365,1,W,10,57 St-7 Av,40.764664,-73.980658,18.0,1,
366,1,Q,5,57 St-7 Av,40.764664,-73.980658,18.0,1,
367,1,R,16,57 St-7 Av,40.764664,-73.980658,18.0,1,
368,0,1,17,66 St-Lincoln Center,40.77344,-73.982209,20.0,1,
369,0,2,33,66 St-Lincoln Center,40.77344,-73.982209,20.0,1,
370,1,1,22,66 St-Lincoln Center,40.77344,-73.982209,20.0,1,
371,1,2,29,66 St-Lincoln Center,40.77344,-73.982209,20.0,1,
372,0,1,18,72 St,40.778453,-73.98197,20.0,1,
373,0,2,34,72 St,40.778453,-73.98197,20.0,1,
374,0,3,27,72 St,40.778453,-73.98197,20.0,1,
375,1,1,21,72 St,40.778453,-73.98197,20.0,1,
376,1,2,28,72 St,40.778453,-73.98197,20.0,1,
377,1,3,8,72 St,40.778453,-73.98197,20.0,1,
378,0,1,19,79 St,40.783934,-73.979917,20.0,0,
379,0,2,35,79 St,40.783934,-73.979917,20.0,0,
380,1,1,20,79 St,40.783934,-73.979917,20.0,0,
381,1,2,27,79 St,40.783934,-73.979917,20.0,0,
382,0,1,20,86 St,40.788644,-73.976218,24.0,0,
383,0,2,36,86 St,40.788644,-73.976218,24.0,0,
384,1,1,19,86 St,40.788644,-73.976218,24.0,0,
385,1,2,26,86 St,40.788644,-73.976218,24.0,0,
386,0,1,21,96 St,40.793919,-73.972323,24.0,1,
387,0,2,37,96 St,40.793919,-73.972323,24.0,1,
388,0,3,28,96 St,40.793919,-73.972323,24.0,1,
389,1,1,18,96 St,40.793919,-73.972323,24.0,1,
390,1,2,25,96 St,40.793919,-73.972323,24.0,1,
391,1,3,7,96 St,40.793919,-73.972323,24.0,1,
392,0,1,22,103 St,40.799446,-73.968379,24.0,0,
393,1,1,17,103 St,40.799446,-73.968379,24.0,0,
394,0,1,23,Cathedral Pkwy (110 St),40.803967,-73.966847,24.0,0,
395,1,1,16,Cathedral Pkwy (110 St),40.803967,-73.966847,24.0,0,
396,0,1,24,116 St-Columbia University,40.807722,-73.96411,26.0,0,
397,1,1,15,116 St-Columbia University,40.807722,-73.96411,26.0,0,
398,0,1,25,125 St,40.815581,-73.958372,26.0,0,
399,1,1,14,125 St,40.815581,-73.958372,26.0,0,
400,0,A,49,125 St,40.811109,-73.952343,26.0,1,
401,0,B,25,125 St,40.811109,-73.952343,26.0,1,
402,0,C,35,125 St,40.811109,-73.952343,26.0,1,
403,0,D,29,125 St,40.811109,-73.952343,26.0,1,
404,1,A,11,125 St,40.811109,-73.952343,26.0,1,
405,1,B,13,125 St,40.811109,-73.952343,26.0,1,
406,1,C,6,125 St,40.811109,-73.952343,26.0,1,
407,1,D,13,125 St,40.811109,-73.952343,26.0,1,
408,0,A,50,135 St,40.817894,-73.947649,26.0,0,
409,0,B,26,135 St,40.817894,-73.947649,26.0,0,
410,0,C,36,135 St,40.817894,-73.947649,26.0,0,
411,1,A,10,135 St,40.817894,-73.947649,26.0,0,
412,1,B,12,135 St,40.817894,-73.947649,26.0,0,
413,1,C,5,135 St,40.817894,-73.947649,26.0,0,
414,0,1,26,137 St-City College,40.822008,-73.953676,30.0,0,
415,1,1,13,137 St-City College,40.822008,-73.953676,30.0,0,
416,0,1,27,145 St,40.826551,-73.95036,30.0,0,
417,1,1,12,145 St,40.826551,-73.95036,30.0,0,
418,0,A,51,145 St,40.824783,-73.944216,30.0,0,
419,0,C,37,145 St,40.824783,-73.944216,30.0,0,
420,1,A,9,145 St,40.824783,-73.944216,30.0,0,
421,1,C,4,145 St,40.824783,-73.944216,30.0,0,
422,0,A,52,155 St,40.830518,-73.941514,30.0,0,
423,0,C,38,155 St,40.830518,-73.941514,30.0,0,
424,1,A,8,155 St,40.830518,-73.941514,30.0,0,
425,1,C,3,155 St,40.830518,-73.941514,30.0,0,
426,0,B,27,145 St,40.824783,-73.944216,30.0,0,
427,0,D,30,145 St,40.824783,-73.944216,30.0,0,
428,1,B,11,145 St,40.824783,-73.944216,30.0,0,
429,1,D,12,145 St,40.824783,-73.944216,30.0,0,
430,0,1,28,157 St,40.834041,-73.94489,33.0,0,
431,1,1,11,157 St,40.834041,-73.94489,33.0,0,
432,0,1,29,168 St-Washington Hts,40.840556,-73.940133,33.0,0,
433,1,1,10,168 St-Washington Hts,40.840556,-73.940133,33.0,0,
434,0,A,53,163 St-Amsterdam Av,40.836013,-73.939892,33.0,0,
435,0,C,39,163 St-Amsterdam Av,40.836013,-73.939892,33.0,0,
436,1,A,7,163 St-Amsterdam Av,40.836013,-73.939892,33.0,0,
437,1,C,2,163 St-Amsterdam Av,40.836013,-73.939892,33.0,0,
438,0,A,54,168 St,40.840719,-73.939561,33.0,1,
439,0,C,40,168 St,40.840719,-73.939561,33.0,1,
440,1,A,6,168 St,40.840719,-73.939561,33.0,1,
441,1,C,1,168 St,40.840719,-73.939561,33.0,1,
442,0,A,55,175 St,40.847391,-73.939704,33.0,1,
443,1,A,5,175 St,40.847391,-73.939704,33.0,1,
444,0,1,30,181 St,40.849505,-73.933596,34.0,0,
445,1,1,9,181 St,40.849505,-73.933596,34.0,0,
446,0,1,31,191 St,40.855225,-73.929412,34.0,0,
447,1,1,8,191 St,40.855225,-73.929412,34.0,0,
448,0,1,32,Dyckman St,40.860531,-73.925536,34.0,2,Downtown only
449,1,1,7,Dyckman St,40.860531,-73.925536,34.0,2,Downtown only
450,0,1,33,207 St,40.864621,-73.918822,34.0,0,
451,1,1,6,207 St,40.864621,-73.918822,34.0,0,
452,0,1,34,215 St,40.869444,-73.915279,34.0,0,
453,1,1,5,215 St,40.869444,-73.915279,34.0,0,
454,0,A,56,181 St,40.851695,-73.937969,34.0,0,
455,1,A,4,181 St,40.851695,-73.937969,34.0,0,
456,0,A,57,190 St,40.859022,-73.93418,34.0,0,
457,1,A,3,190 St,40.859022,-73.93418,34.0,0,
458,0,A,58,Dyckman St,40.865491,-73.927271,34.0,0,
459,1,A,2,Dyckman St,40.865491,-73.927271,34.0,0,
460,0,A,59,Inwood-207 St,40.868072,-73.919899,34.0,1,
461,1,A,1,Inwood-207 St,40.868072,-73.919899,34.0,1,
462,0,2,38,Central Park North (110 St),40.799075,-73.951822,28.0,0,
463,0,3,29,Central Park North (110 St),40.799075,-73.951822,28.0,0,
464,1,2,24,Central Park North (110 St),40.799075,-73.951822,28.0,0,
465,1,3,6,Central Park North (110 St),40.799075,-73.951822,28.0,0,
466,0,2,39,116 St,40.802098,-73.949625,28.0,0,
467,0,3,30,116 St,40.802098,-73.949625,28.0,0,
468,1,2,23,116 St,40.802098,-73.949625,28.0,0,
469,1,3,5,116 St,40.802098,-73.949625,28.0,0,
470,0,2,40,125 St,40.807754,-73.945495,28.0,0,
471,0,3,31,125 St,40.807754,-73.945495,28.0,0,
472,1,2,22,125 St,40.807754,-73.945495,28.0,0,
473,1,3,4,125 St,40.807754,-73.945495,28.0,0,
474,0,A,47,Cathedral Pkwy (110 St),40.800603,-73.958161,28.0,0,
475,0,B,23,Cathedral Pkwy (110 St),40.800603,-73.958161,28.0,0,
476,0,C,33,Cathedral Pkwy (110 St),40.800603,-73.958161,28.0,0,
477,1,A,13,Cathedral Pkwy (110 St),40.800603,-73.958161,28.0,0,
478,1,B,15,Cathedral Pkwy (110 St),40.800603,-73.958161,28.0,0,
479,1,C,8,Cathedral Pkwy (110 St),40.800603,-73.958161,28.0,0,
480,0,A,48,116 St,40.805085,-73.954882,28.0,0,
481,0,B,24,116 St,40.805085,-73.954882,28.0,0,
482,0,C,34,116 St,40.805085,-73.954882,28.0,0,
483,1,A,12,116 St,40.805085,-73.954882,28.0,0,
484,1,B,14,116 St,40.805085,-73.954882,28.0,0,
485,1,C,7,116 St,40.805085,-73.954882,28.0,0,
486,0,2,41,135 St,40.814229,-73.94077,32.0,1,
487,0,3,32,135 St,40.814229,-73.94077,32.0,1,
488,1,2,21,135 St,40.814229,-73.94077,32.0,1,
489,1,3,3,135 St,40.814229,-73.94077,32.0,1,
490,0,3,33,145 St,40.820421,-73.936245,32.0,0,
491,1,3,2,145 St,40.820421,-73.936245,32.0,0,
492,0,3,34,Harlem-148 St,40.82388,-73.93647,32.0,0,
493,1,3,1,Harlem-148 St,40.82388,-73.93647,32.0,0,
494,0,B,28,155 St,40.830135,-73.938209,32.0,0,
495,0,D,31,155 St,40.830135,-73.938209,32.0,0,
496,1,B,10,155 St,40.830135,-73.938209,32.0,0,
497,1,D,11,155 St,40.830135,-73.938209,32.0,0,
498,0,4,22,Canal St,40.718803,-74.000193,5.0,1,
499,0,6,2,Canal St,40.718803,-74.000193,5.0,1,
500,0,6X,2,Canal St,40.718803,-74.000193,5.0,1,
501,1,4,33,Canal St,40.718803,-74.000193,5.0,1,
502,1,6,37,Canal St,40.718803,-74.000193,5.0,1,
503,1,6X,32,Canal St,40.718803,-74.000193,5.0,1,
504,0,4,23,Spring St,40.722301,-73.997141,5.0,0,
505,0,6,3,Spring St,40.722301,-73.997141,5.0,0,
506,0,6X,3,Spring St,40.722301,-73.997141,5.0,0,
507,1,4,32,Spring St,40.722301,-73.997141,5.0,0,
508,1,6,36,Spring St,40.722301,-73.997141,5.0,0,
509,1,6X,31,Spring St,40.722301,-73.997141,5.0,0,
510,0,B,10,Grand St,40.718267,-73.993753,5.0,0,
511,0,D,21,Grand St,40.718267,-73.993753,5.0,0,
512,1,B,28,Grand St,40.718267,-73.993753,5.0,0,
513,1,D,21,Grand St,40.718267,-73.993753,5.0,0,
514,0,J,3,Chambers St,40.713243,-74.003401,5.0,1,
515,0,Z,3,Chambers St,40.713243,-74.003401,5.0,1,
516,1,J,28,Chambers St,40.713243,-74.003401,5.0,1,
517,1,Z,19,Chambers St,40.713243,-74.003401,5.0,1,
518,0,J,4,Canal St,40.718092,-73.999892,5.0,0,
519,0,Z,4,Canal St,40.718092,-73.999892,5.0,0,
520,1,J,27,Canal St,40.718092,-73.999892,5.0,0,
521,1,Z,18,Canal St,40.718092,-73.999892,5.0,0,
522,0,J,5,Bowery,40.72028,-73.993915,5.0,0,
523,0,Z,5,Bowery,40.72028,-73.993915,5.0,0,
524,1,J,26,Bowery,40.72028,-73.993915,5.0,0,
525,1,Z,17,Bowery,40.72028,-73.993915,5.0,0,
526,0,N,28,Prince St,40.724329,-73.997702,5.0,0,
527,0,W,27,Prince St,40.724329,-73.997702,5.0,0,
528,0,Q,22,Prince St,40.724329,-73.997702,5.0,0,
529,0,R,22,Prince St,40.724329,-73.997702,5.0,0,
530,1,N,18,Prince St,40.724329,-73.997702,5.0,0,
531,1,W,18,Prince St,40.724329,-73.997702,5.0,0,
532,1,Q,13,Prince St,40.724329,-73.997702,5.0,0,
533,1,R,24,Prince St,40.724329,-73.997702,5.0,0,
534,0,Q,21,Canal St,40.718383,-74.00046,5.0,0,
535,1,Q,14,Canal St,40.718383,-74.00046,5.0,0,
536,0,4,24,Bleecker St,40.725915,-73.994659,9.0,1,
537,0,6,4,Bleecker St,40.725915,-73.994659,9.0,1,
538,0,6X,4,Bleecker St,40.725915,-73.994659,9.0,1,
539,1,4,31,Bleecker St,40.725915,-73.994659,9.0,1,
540,1,6,35,Bleecker St,40.725915,-73.994659,9.0,1,
541,1,6X,30,Bleecker St,40.725915,-73.994659,9.0,1,
542,0,4,25,Astor Pl,40.730054,-73.99107,9.0,0,
543,0,6,5,Astor Pl,40.730054,-73.99107,9.0,0,
544,0,6X,5,Astor Pl,40.730054,-73.99107,9.0,0,
545,1,4,30,Astor Pl,40.730054,-73.99107,9.0,0,
546,1,6,34,Astor Pl,40.730054,-73.99107,9.0,0,
547,1,6X,29,Astor Pl,40.730054,-73.99107,9.0,0,
548,0,B,11,Broadway-Lafayette St,40.725297,-73.996204,9.0,1,
549,0,D,22,Broadway-Lafayette St,40.725297,-73.996204,9.0,1,
550,0,F,26,Broadway-Lafayette St,40.725297,-73.996204,9.0,1,
551,0,FX,20,Broadway-Lafayette St,40.725297,-73.996204,9.0,1,
552,0,M,14,Broadway-Lafayette St,40.725297,-73.996204,9.0,1,
553,1,B,27,Broadway-Lafayette St,40.725297,-73.996204,9.0,1,
554,1,D,20,Broadway-Lafayette St,40.725297,-73.996204,9.0,1,
555,1,F,20,Broadway-Lafayette St,40.725297,-73.996204,9.0,1,
556,1,FX,20,Broadway-Lafayette St,40.725297,-73.996204,9.0,1,
557,1,M,23,Broadway-Lafayette St,40.725297,-73.996204,9.0,1,
558,0,F,25,2 Av,40.723402,-73.989938,9.0,0,
559,0,FX,19,2 Av,40.723402,-73.989938,9.0,0,
560,1,F,21,2 Av,40.723402,-73.989938,9.0,0,
561,1,FX,21,2 Av,40.723402,-73.989938,9.0,0,
562,0,L,20,1 Av,40.730953,-73.981628,9.0,1,
563,1,L,5,1 Av,40.730953,-73.981628,9.0,1,
564,0,L,22,14 St-Union Sq,40.734789,-73.99073,9.0,1,
565,1,L,3,14 St-Union Sq,40.734789,-73.99073,9.0,1,
566,0,N,29,8 St-NYU,40.730328,-73.992629,9.0,0,
567,0,W,28,8 St-NYU,40.730328,-73.992629,9.0,0,
568,0,Q,23,8 St-NYU,40.730328,-73.992629,9.0,0,
569,0,R,23,8 St-NYU,40.730328,-73.992629,9.0,0,
570,1,N,17,8 St-NYU,40.730328,-73.992629,9.0,0,
571,1,W,17,8 St-NYU,40.730328,-73.992629,9.0,0,
572,1,Q,12,8 St-NYU,40.730328,-73.992629,9.0,0,
573,1,R,23,8 St-NYU,40.730328,-73.992629,9.0,0,
574,0,4,32,59 St,40.762526,-73.967967,19.0,0,
575,0,5,21,59 St,40.762526,-73.967967,19.0,0,
576,0,6,12,59 St,40.762526,-73.967967,19.0,0,
577,0,6X,12,59 St,40.762526,-73.967967,19.0,0,
578,1,4,23,59 St,40.762526,-73.967967,19.0,0,
579,1,5,19,59 St,40.762526,-73.967967,19.0,0,
580,1,6,27,59 St,40.762526,-73.967967,19.0,0,
581,1,6X,22,59 St,40.762526,-73.967967,19.0,0,
582,0,4,33,68 St-Hunter College,40.768141,-73.96387,19.0,0,
583,0,6,13,68 St-Hunter College,40.768141,-73.96387,19.0,0,
584,0,6X,13,68 St-Hunter College,40.768141,-73.96387,19.0,0,
585,1,4,22,68 St-Hunter College,40.768141,-73.96387,19.0,0,
586,1,6,26,68 St-Hunter College,40.768141,-73.96387,19.0,0,
587,1,6X,21,68 St-Hunter College,40.768141,-73.96387,19.0,0,
588,0,4,34,77 St,40.77362,-73.959874,19.0,0,
589,0,6,14,77 St,40.77362,-73.959874,19.0,0,
590,0,6X,14,77 St,40.77362,-73.959874,19.0,0,
591,1,4,21,77 St,40.77362,-73.959874,19.0,0,
592,1,6,25,77 St,40.77362,-73.959874,19.0,0,
593,1,6X,20,77 St,40.77362,-73.959874,19.0,0,
594,0,4,35,86 St,40.779492,-73.955589,19.0,2,Uptown 6 only
595,0,5,22,86 St,40.779492,-73.955589,19.0,2,Uptown 6 only
596,0,6,15,86 St,40.779492,-73.955589,19.0,2,Uptown 6 only
597,0,6X,15,86 St,40.779492,-73.955589,19.0,2,Uptown 6 only
598,1,4,20,86 St,40.779492,-73.955589,19.0,2,Uptown 6 only
599,1,5,18,86 St,40.779492,-73.955589,19.0,2,Uptown 6 only
600,1,6,24,86 St,40.779492,-73.955589,19.0,2,Uptown 6 only
601,1,6X,19,86 St,40.779492,-73.955589,19.0,2,Uptown 6 only
602,0,4,36,96 St,40.785672,-73.95107,19.0,0,
603,0,6,16,96 St,40.785672,-73.95107,19.0,0,
604,0,6X,16,96 St,40.785672,-73.95107,19.0,0,
605,1,4,19,96 St,40.785672,-73.95107,19.0,0,
606,1,6,23,96 St,40.785672,-73.95107,19.0,0,
607,1,6X,18,96 St,40.785672,-73.95107,19.0,0,
608,0,F,34,Lexington Av/63 St,40.764629,-73.966113,19.0,1,
609,0,FX,28,Lexington Av/63 St,40.764629,-73.966113,19.0,1,
610,0,Q,31,Lexington Av/63 St,40.764629,-73.966113,19.0,1,
611,1,F,12,Lexington Av/63 St,40.764629,-73.966113,19.0,1,
612,1,FX,12,Lexington Av/63 St,40.764629,-73.966113,19.0,1,
613,1,Q,4,Lexington Av/63 St,40.764629,-73.966113,19.0,1,
614,0,N,38,Lexington Av/59 St,40.76266,-73.967258,19.0,0,
615,0,W,37,Lexington Av/59 St,40.76266,-73.967258,19.0,0,
616,0,R,32,Lexington Av/59 St,40.76266,-73.967258,19.0,0,
617,1,N,8,Lexington Av/59 St,40.76266,-73.967258,19.0,0,
618,1,W,8,Lexington Av/59 St,40.76266,-73.967258,19.0,0,
619,1,R,14,Lexington Av/59 St,40.76266,-73.967258,19.0,0,
620,0,Q,32,72 St,40.768799,-73.958424,19.0,1,
621,1,Q,3,72 St,40.768799,-73.958424,19.0,1,
622,0,Q,33,86 St,40.777891,-73.951787,19.0,1,
623,1,Q,2,86 St,40.777891,-73.951787,19.0,1,
624,0,4,37,103 St,40.7906,-73.947478,23.0,0,
625,0,6,17,103 St,40.7906,-73.947478,23.0,0,
626,0,6X,17,103 St,40.7906,-73.947478,23.0,0,
627,1,4,18,103 St,40.7906,-73.947478,23.0,0,
628,1,6,22,103 St,40.7906,-73.947478,23.0,0,
629,1,6X,17,103 St,40.7906,-73.947478,23.0,0,
630,0,4,38,110 St,40.79502,-73.94425,23.0,0,
631,0,6,18,110 St,40.79502,-73.94425,23.0,0,
632,0,6X,18,110 St,40.79502,-73.94425,23.0,0,
633,1,4,17,110 St,40.79502,-73.94425,23.0,0,
634,1,6,21,110 St,40.79502,-73.94425,23.0,0,
635,1,6X,16,110 St,40.79502,-73.94425,23.0,0,
636,0,Q,34,96 St,40.784318,-73.947152,23.0,1,
637,1,Q,1,96 St,40.784318,-73.947152,23.0,1,
638,0,4,39,116 St,40.798629,-73.941617,25.0,0,
639,0,6,19,116 St,40.798629,-73.941617,25.0,0,
640,0,6X,19,116 St,40.798629,-73.941617,25.0,0,
641,1,4,16,116 St,40.798629,-73.941617,25.0,0,
642,1,6,20,116 St,40.798629,-73.941617,25.0,0,
643,1,6X,15,116 St,40.798629,-73.941617,25.0,0,
644,0,4,40,125 St,40.804138,-73.937594,25.0,1,
645,0,5,23,125 St,40.804138,-73.937594,25.0,1,
646,0,6,20,125 St,40.804138,-73.937594,25.0,1,
647,0,6X,20,125 St,40.804138,-73.937594,25.0,1,
648,1,4,15,125 St,40.804138,-73.937594,25.0,1,
649,1,5,17,125 St,40.804138,-73.937594,25.0,1,
650,1,6,19,125 St,40.804138,-73.937594,25.0,1,
651,1,6X,14,125 St,40.804138,-73.937594,25.0,1,
652,0,7,1,34 St-Hudson Yards,40.755882,-74.00191,10.0,1,
653,0,7X,1,34 St-Hudson Yards,40.755882,-74.00191,10.0,1,
654,1,7,22,34 St-Hudson Yards,40.755882,-74.00191,10.0,1,
655,1,7X,12,34 St-Hudson Yards,40.755882,-74.00191,10.0,1,
656,0,A,36,14 St,40.740893,-74.00169,10.0,1,
657,0,C,22,14 St,40.740893,-74.00169,10.0,1,
658,0,E,5,14 St,40.740893,-74.00169,10.0,1,
659,1,A,24,14 St,40.740893,-74.00169,10.0,1,
660,1,C,19,14 St,40.740893,-74.00169,10.0,1,
661,1,E,28,14 St,40.740893,-74.00169,10.0,1,
662,0,A,37,23 St,40.745906,-73.998041,10.0,0,
663,0,C,23,23 St,40.745906,-73.998041,10.0,0,
664,0,E,6,23 St,40.745906,-73.998041,10.0,0,
665,1,A,23,23 St,40.745906,-73.998041,10.0,0,
666,1,C,18,23 St,40.745906,-73.998041,10.0,0,
667,1,E,27,23 St,40.745906,-73.998041,10.0,0,
668,0,L,24,8 Av,40.739777,-74.002578,10.0,1,
669,1,L,1,8 Av,40.739777,-74.002578,10.0,1,
670,0,7,4,Grand Central-42 St,40.751431,-73.976041,17.0,1,
671,0,7X,4,Grand Central-42 St,40.751431,-73.976041,17.0,1,
672,1,7,19,Grand Central-42 St,40.751431,-73.976041,17.0,1,
673,1,7X,9,Grand Central-42 St,40.751431,-73.976041,17.0,1,
674,0,E,12,Lexington Av/53 St,40.757552,-73.969055,17.0,1,
675,0,M,22,Lexington Av/53 St,40.757552,-73.969055,17.0,1,
676,1,E,21,Lexington Av/53 St,40.757552,-73.969055,17.0,1,
677,1,M,15,Lexington Av/53 St,40.757552,-73.969055,17.0,1,
678,0,A,42,72 St,40.775594,-73.97641,22.0,0,
679,0,B,18,72 St,40.775594,-73.97641,22.0,0,
680,0,C,28,72 St,40.775594,-73.97641,22.0,0,
681,1,A,18,72 St,40.775594,-73.97641,22.0,0,
682,1,B,20,72 St,40.775594,-73.97641,22.0,0,
683,1,C,13,72 St,40.775594,-73.97641,22.0,0,
684,0,A,43,81 St-Museum of Natural History,40.781433,-73.972143,22.0,0,
685,0,B,19,81 St-Museum of Natural History,40.781433,-73.972143,22.0,0,
686,0,C,29,81 St-Museum of Natural History,40.781433,-73.972143,22.0,0,
687,1,A,17,81 St-Museum of Natural History,40.781433,-73.972143,22.0,0,
688,1,B,19,81 St-Museum of Natural History,40.781433,-73.972143,22.0,0,
689,1,C,12,81 St-Museum of Natural History,40.781433,-73.972143,22.0,0,
690,0,A,44,86 St,40.785868,-73.968916,22.0,0,
691,0,B,20,86 St,40.785868,-73.968916,22.0,0,
692,0,C,30,86 St,40.785868,-73.968916,22.0,0,
693,1,A,16,86 St,40.785868,-73.968916,22.0,0,
694,1,B,18,86 St,40.785868,-73.968916,22.0,0,
695,1,C,11,86 St,40.785868,-73.968916,22.0,0,
696,0,A,45,96 St,40.791642,-73.964696,22.0,0,
697,0,B,21,96 St,40.791642,-73.964696,22.0,0,
698,0,C,31,96 St,40.791642,-73.964696,22.0,0,
699,1,A,15,96 St,40.791642,-73.964696,22.0,0,
700,1,B,17,96 St,40.791642,-73.964696,22.0,0,
701,1,C,10,96 St,40.791642,-73.964696,22.0,0,
702,0,A,46,103 St,40.796092,-73.961454,22.0,0,
703,0,B,22,103 St,40.796092,-73.961454,22.0,0,
704,0,C,32,103 St,40.796092,-73.961454,22.0,0,
705,1,A,14,103 St,40.796092,-73.961454,22.0,0,
706,1,B,16,103 St,40.796092,-73.961454,22.0,0,
707,1,C,9,103 St,40.796092,-73.961454,22.0,0,
708,0,N,37,5 Av/59 St,40.764811,-73.973347,22.0,0,
709,0,W,36,5 Av/59 St,40.764811,-73.973347,22.0,0,
710,0,R,31,5 Av/59 St,40.764811,-73.973347,22.0,0,
711,1,N,9,5 Av/59 St,40.764811,-73.973347,22.0,0,
712,1,W,9,5 Av/59 St,40.764811,-73.973347,22.0,0,
713,1,R,15,5 Av/59 St,40.764811,-73.973347,22.0,0,
714,0,F,23,East Broadway,40.713715,-73.990173,7.0,0,
715,0,FX,17,East Broadway,40.713715,-73.990173,7.0,0,
716,1,F,23,East Broadway,40.713715,-73.990173,7.0,0,
717,1,FX,23,East Broadway,40.713715,-73.990173,7.0,0,
718,0,F,24,Delancey St-Essex St,40.718611,-73.988114,7.0,0,
719,0,FX,18,Delancey St-Essex St,40.718611,-73.988114,7.0,0,
720,1,F,22,Delancey St-Essex St,40.718611,-73.988114,7.0,0,
721,1,FX,22,Delancey St-Essex St,40.718611,-73.988114,7.0,0,
722,0,J,6,Delancey St-Essex St,40.718315,-73.987437,7.0,0,
723,0,Z,6,Delancey St-Essex St,40.718315,-73.987437,7.0,0,
724,0,M,13,Delancey St-Essex St,40.718315,-73.987437,7.0,0,
725,1,J,25,Delancey St-Essex St,40.718315,-73.987437,7.0,0,
726,1,Z,16,Delancey St-Essex St,40.718315,-73.987437,7.0,0,
727,1,M,24,Delancey St-Essex St,40.718315,-73.987437,7.0,0,
728,0,F,35,Roosevelt Island,40.759145,-73.95326,114.0,1,
729,0,FX,29,Roosevelt Island,40.759145,-73.95326,114.0,1,
730,1,F,11,Roosevelt Island,40.759145,-73.95326,114.0,1,
731,1,FX,11,Roosevelt Island,40.759145,-73.95326,114.0,1,
